country_code,date,likes,place_full_name,place_name,place_type,retweets,text,verified,Sentiment Label,city,state_id,state_name,county_name,lat,lng,round_date
US,2021-05-15 04:29:10,0.0,"Aspen Hill, MD",Aspen Hill,city,0.0,i don understand how year into covid some people can still say its lie will continue wearing my mask because feel safer with it,0.0,1,Aspen Hill,MD,Maryland,Montgomery,39.0928,-77.0823,2021-05-15 04:00:00
US,2021-05-15 04:29:08,0.0,"Glen Head, NY",Glen Head,city,0.0,so just saw vaccine psa using they them pronouns in the same breath as she her and he him pronouns and my heart,0.0,1,Glen Head,NY,New York,Nassau,40.845,-73.618,2021-05-15 04:00:00
US,2021-05-15 04:28:15,0.0,"Clovis, CA",Clovis,city,0.0,my young healthy 56 yr old father died of covid induced stroke in december within 15 hour,0.0,0,Clovis,CA,California,Fresno,36.8278,-119.6831,2021-05-15 04:00:00
US,2021-05-15 04:27:46,0.0,"Pella, IA",Pella,city,0.0,exactly here a related article,0.0,1,Pella,IA,Iowa,Marion,41.4051,-92.9177,2021-05-15 04:00:00
US,2021-05-15 04:26:11,0.0,"Norton Shores, MI",Norton Shores,city,0.0,thank you for honoring your citizens as they honor you thank you for guiding you citizens as you wo,0.0,1,Norton Shores,MI,Michigan,Muskegon,43.1621,-86.2519,2021-05-15 04:00:00
US,2021-05-15 04:25:14,1.0,"St Louis, MO",St Louis,city,0.0,i think it time to update the marshall plan maybe more of marshall mathers plan this time around,0.0,1,,,,,,,2021-05-15 04:00:00
US,2021-05-15 04:25:08,1.0,"San Diego, CA",San Diego,city,0.0,i surprised which already verifies membership in hawaii we had to produce our phones to sh,0.0,1,San Diego,CA,California,San Diego,32.8312,-117.1225,2021-05-15 04:00:00
US,2021-05-15 04:24:50,0.0,"Cabot, AR",Cabot,city,0.0,something scary seems to be emerging about dr fauci the wuhan virus lab and the global covid 19 pandemic did he a,0.0,0,Cabot,AR,Arkansas,Lonoke,34.9768,-92.0274,2021-05-15 04:00:00
US,2021-05-15 04:24:35,0.0,"West Hollywood, CA",West Hollywood,city,0.0,when rain on me comes on at the bar for the first time for you post covid,0.0,1,West Hollywood,CA,California,Los Angeles,34.0882,-118.3718,2021-05-15 04:00:00
US,2021-05-15 04:24:11,0.0,"Port Jervis, NY",Port Jervis,city,0.0,35 000 auto deaths annually vs 600 000 covid deaths this must be the math they teach at trump university,0.0,1,Port Jervis,NY,New York,Orange,41.3783,-74.6909,2021-05-15 04:00:00
US,2021-05-15 04:23:44,0.0,"Pawling, NY",Pawling,city,0.0,willing to bet the amount of people sitting in prison over fake vaccine card is about to be insane,0.0,0,,,,,,,2021-05-15 04:00:00
US,2021-05-15 04:20:49,0.0,"Akron, OH",Akron,city,0.0,vaccine pop up clinic at the akron urban league may 20th see post for registration details akron ur,0.0,1,Akron,OH,Ohio,Summit,41.0798,-81.5219,2021-05-15 04:00:00
US,2021-05-15 04:20:36,0.0,"Highlands Ranch, CO",Highlands Ranch,city,0.0,to be fair the scotia north division was not thing until this year when they needed to create ca,0.0,1,Highlands Ranch,CO,Colorado,Douglas,39.5419,-104.9708,2021-05-15 04:00:00
US,2021-05-15 04:19:08,3.0,"Tempe, AZ",Tempe,city,0.0,vaccine cards at the door of course,0.0,1,Tempe,AZ,Arizona,Maricopa,33.3881,-111.9318,2021-05-15 04:00:00
US,2021-05-15 04:17:43,0.0,"Oswego, IL",Oswego,city,0.0,my parents screaming at me for not eating meat anymore me passing out from my covid vaccine while they re taking t,0.0,0,Oswego,IL,Illinois,Kendall,41.6834,-88.3372,2021-05-15 04:00:00
US,2021-05-15 04:16:25,0.0,"Philadelphia, PA",Philadelphia,city,0.0,rocking my new scrub hat made by my colleague who sewed lot during covid our ob patients are,0.0,1,Philadelphia,PA,Pennsylvania,Philadelphia,40.0077,-75.1339,2021-05-15 04:00:00
US,2021-05-15 04:15:19,3.0,"Houston, TX",Houston,city,1.0,if vaccinated people were paid more lot of unvaccinated people would want to take the vaccine,0.0,1,Houston,TX,Texas,Harris,29.7863,-95.3889,2021-05-15 04:00:00
US,2021-05-15 04:15:08,0.0,"Queens, NY",Queens,city,0.0,mr governor do the right thing and keep masks requirement nys andnyc still have lot of people tha,0.0,1,Queens,NY,New York,Queens,40.7498,-73.7976,2021-05-15 04:00:00
US,2021-05-15 04:14:30,0.0,"South St Paul, MN",South St Paul,city,0.0,science and facts aren a trend though that like arguing against math there is right wrong answer just,0.0,0,,,,,,,2021-05-15 04:00:00
US,2021-05-15 04:14:10,0.0,"Los Ranchos de Albuquerque, NM",Los Ranchos de Albuquerque,city,0.0,my school had covid case in classroom down the hall but no one even cared,0.0,1,Los Ranchos de Albuquerque,NM,New Mexico,Bernalillo,35.1625,-106.6481,2021-05-15 04:00:00
US,2021-05-15 04:14:06,0.0,"Manhattan, NY",Manhattan,city,0.0,so happened across today in the city ll be soon,0.0,1,Manhattan,NY,New York,New York,40.7834,-73.9662,2021-05-15 04:00:00
US,2021-05-15 04:14:02,0.0,"Charleston, WV",Charleston,city,0.0,covid testing many companies gave covid sick days funny how no one was worried about poor people getting free va,0.0,0,Charleston,WV,West Virginia,Kanawha,38.3484,-81.6323,2021-05-15 04:00:00
US,2021-05-15 04:13:55,1.0,"Portland, OR",Portland,city,0.0,yeah all good got the vaccine and the side effects rolled me,0.0,1,Portland,OR,Oregon,Multnomah,45.5372,-122.65,2021-05-15 04:00:00
US,2021-05-15 04:12:08,1.0,"Enterprise, NV",Enterprise,city,0.0,i was just shocked at how fast it happened and m worried about the unvaccinateds now infecting each ot,0.0,0,Enterprise,NV,Nevada,Clark,36.0164,-115.2208,2021-05-15 04:00:00
US,2021-05-15 04:11:21,2.0,"Vancouver, WA",Vancouver,city,0.0,i is so scared to get my vaccine but sooo thankful to be getting one,0.0,1,Vancouver,WA,Washington,Clark,45.6366,-122.5967,2021-05-15 04:00:00
US,2021-05-15 04:11:15,0.0,"Rancho Cucamonga, CA",Rancho Cucamonga,city,0.0,second dose of the vaccine really messed my cycle up pretty bad,0.0,0,Rancho Cucamonga,CA,California,San Bernardino,34.1248,-117.5666,2021-05-15 04:00:00
US,2021-05-15 04:09:26,0.0,"Los Angeles, CA",Los Angeles,city,0.0,so got the pfizer shot earlier and my arm only slightly hurts which is strange cause the two arms already had don hurt at all,0.0,0,Los Angeles,CA,California,Los Angeles,34.1139,-118.4068,2021-05-15 04:00:00
US,2021-05-15 04:09:14,1.0,"Bozeman, MT",Bozeman,city,0.0,she afraid of covid why isn she afraid of metabolic disease as passionately,0.0,1,Bozeman,MT,Montana,Gallatin,45.6832,-111.0552,2021-05-15 04:00:00
US,2021-05-15 04:08:15,2.0,"St Louis, MO",St Louis,city,0.0,my first karaoke song back post vaccine crowded house don dream it over specifically chosen for its promine,0.0,1,,,,,,,2021-05-15 04:00:00
US,2021-05-15 04:08:13,0.0,"Manhattan, NY",Manhattan,city,0.0,refusing the vaccine is irresponsible and puts other more vulnerable people at risk hope they reconsider,0.0,0,Manhattan,NY,New York,New York,40.7834,-73.9662,2021-05-15 04:00:00
US,2021-05-15 04:06:52,0.0,"Santa Barbara, CA",Santa Barbara,city,0.0,ps did you get hair and make up done too,0.0,1,Santa Barbara,CA,California,Santa Barbara,34.4285,-119.7202,2021-05-15 04:00:00
US,2021-05-15 04:06:23,0.0,"Santa Barbara, CA",Santa Barbara,city,0.0,haha love that good work mom,0.0,1,Santa Barbara,CA,California,Santa Barbara,34.4285,-119.7202,2021-05-15 04:00:00
US,2021-05-15 04:05:13,0.0,"Forest City, FL",Forest City,city,0.0,seriously anyone who has legitimate worries about an emergency use rushed to arms everywhere shot,0.0,0,Forest City,FL,Florida,Seminole,28.6619,-81.4443,2021-05-15 04:00:00
US,2021-05-15 04:04:39,1.0,"Brooklyn, NY",Brooklyn,city,0.0,wait does law amp order still rip from the headlines watching did some fancy doctor sel,0.0,1,Brooklyn,NY,New York,Kings,40.6501,-73.9496,2021-05-15 04:00:00
US,2021-05-15 04:04:34,0.0,"Pukalani, HI",Pukalani,city,0.0,the gift of on the drive home after my 1st old haleakala hwy,0.0,1,Pukalani,HI,Hawaii,Maui,20.8329,-156.3415,2021-05-15 04:00:00
US,2021-05-15 04:04:27,0.0,"Denver, CO",Denver,city,0.0,hey m fully vaccinated but work in healthcare so how are you going to make this happen you said the p,0.0,1,Denver,CO,Colorado,Denver,39.7621,-104.8759,2021-05-15 04:00:00
US,2021-05-15 04:01:57,0.0,"Jeffersonville, IN",Jeffersonville,city,0.0,at some point we were going to have to get back to normal everyone who wants vaccine has had ample opportunity,0.0,1,Jeffersonville,IN,Indiana,Clark,38.3376,-85.7026,2021-05-15 04:00:00
US,2021-05-15 04:00:52,0.0,"Salisbury, MD",Salisbury,city,0.0,welp guess it time to get the vaccine,0.0,1,Salisbury,MD,Maryland,Wicomico,38.3756,-75.5867,2021-05-15 04:00:00
US,2021-05-15 04:00:22,0.0,"Arlington, WA",Arlington,city,0.0,huh on 5 14 21 in thurston co of covid cases by pop 3 28 of deaths is,0.0,1,Arlington,WA,Washington,Snohomish,48.1698,-122.1443,2021-05-15 04:00:00
US,2021-05-15 03:58:42,2.0,"Los Angeles, CA",Los Angeles,city,0.0,data supports delay in getting 2nd vaccine dose,0.0,1,Los Angeles,CA,California,Los Angeles,34.1139,-118.4068,2021-05-15 03:00:00
US,2021-05-15 03:57:51,0.0,"Milwaukee, WI",Milwaukee,city,0.0,get the vaccine it not hard decision,0.0,1,Milwaukee,WI,Wisconsin,Milwaukee,43.0642,-87.9673,2021-05-15 03:00:00
US,2021-05-15 03:55:50,4.0,"Ann Arbor, MI",Ann Arbor,city,0.0,every time see long covid my brain autocompletes long cat instead because it is full of long worms,0.0,1,Ann Arbor,MI,Michigan,Washtenaw,42.2755,-83.7312,2021-05-15 03:00:00
US,2021-05-15 03:55:50,1.0,"St Cloud, FL",St Cloud,city,0.0,brain activated and asking for proof of vaccination is not violat,0.0,1,,,,,,,2021-05-15 03:00:00
US,2021-05-15 03:55:36,1.0,"Emporium, PA",Emporium,city,0.0,this covid shot is hitting me,0.0,1,Emporium,PA,Pennsylvania,Cameron,41.5102,-78.2363,2021-05-15 03:00:00
US,2021-05-15 03:54:56,2.0,"Washington, DC",Washington,city,0.0,moderna snuck up and kicked my ass again yall send help,0.0,0,Washington,DC,District of Columbia,District of Columbia,38.9047,-77.0163,2021-05-15 03:00:00
US,2021-05-15 03:54:54,0.0,"Irvine, CA",Irvine,city,0.0,this whole thing is mess our governments have mostly failed covid it response amp the rules it madden,0.0,0,Irvine,CA,California,Orange,33.6772,-117.7738,2021-05-15 03:00:00
US,2021-05-15 03:53:56,1.0,"Austin, TX",Austin,city,0.0,just had my first overheard bathroom experience with girls asking which vaccine they got we re almost there folks,0.0,1,Austin,TX,Texas,Travis,30.3004,-97.7522,2021-05-15 03:00:00
US,2021-05-15 03:53:08,2.0,"Oklahoma City, OK",Oklahoma City,city,0.0,tell em again grandpa it ok if people feel safer still wearing mask get your vaccine and you won have,0.0,1,Oklahoma City,OK,Oklahoma,Oklahoma,35.4676,-97.5136,2021-05-15 03:00:00
US,2021-05-15 03:52:55,1.0,"Tulsa, OK",Tulsa,city,0.0,my ass will be voting in person during the last election because filed that help an incapacitated,0.0,0,Tulsa,OK,Oklahoma,Tulsa,36.1284,-95.9042,2021-05-15 03:00:00
US,2021-05-15 03:52:25,0.0,"Sunnyvale, CA",Sunnyvale,city,0.0,this younger patient population has new challenges for our clinic to keep an eye out for but overall we re having,0.0,1,Sunnyvale,CA,California,Santa Clara,37.3836,-122.0256,2021-05-15 03:00:00
US,2021-05-15 03:52:23,0.0,"Mountain View, CA",Mountain View,city,0.0,mountain view vaccine clinic day number 79 is wrap time to kick back and recharge as of thursday santa clar,0.0,1,Mountain View,CA,California,Santa Clara,37.4,-122.0796,2021-05-15 03:00:00
US,2021-05-15 03:51:52,1.0,"Fallbrook, CA",Fallbrook,city,0.0,finally made my appointment for the vaccine,0.0,1,Fallbrook,CA,California,San Diego,33.3693,-117.2259,2021-05-15 03:00:00
US,2021-05-15 03:51:24,0.0,"Chicago, IL",Chicago,city,0.0,arrieta is trump guy so it figures he be stupid enough to forego the vaccine rednecks gonna redneck,0.0,0,Chicago,IL,Illinois,Cook,41.8373,-87.6862,2021-05-15 03:00:00
US,2021-05-15 03:50:51,3.0,"Gilbert, AZ",Gilbert,city,1.0,she ain lying 45 days in hospital wondering if you will ever see your family again d take those vaccin,0.0,0,Gilbert,AZ,Arizona,Maricopa,33.3101,-111.7463,2021-05-15 03:00:00
US,2021-05-15 03:50:35,2.0,"St Cloud, FL",St Cloud,city,0.0,speaking as someone who is responsible amp is fully vaccinated personally no longer c,0.0,0,,,,,,,2021-05-15 03:00:00
US,2021-05-15 03:49:14,0.0,"Los Banos, CA",Los Banos,city,0.0,oh shoot kate just found out she was pregnant started late to the game and started to watch sea,0.0,0,Los Banos,CA,California,Merced,37.063,-120.8406,2021-05-15 03:00:00
US,2021-05-15 03:48:32,0.0,"Parker, TX",Parker,city,0.0,just realized that after covid have turned into thor in avengers endgame hahahaha,0.0,1,Parker,TX,Texas,Collin,33.057,-96.6248,2021-05-15 03:00:00
US,2021-05-15 03:47:24,0.0,"Arlington, TX",Arlington,city,0.0,covid set up the most interesting nfl season and nba playoffs on accident lol,0.0,1,Arlington,TX,Texas,Tarrant,32.6998,-97.125,2021-05-15 03:00:00
US,2021-05-15 03:47:16,0.0,"Brigham City, UT",Brigham City,city,0.0,fans are the type to go get the vaccine and ask 4 the vegan 1,0.0,1,Brigham City,UT,Utah,Box Elder,41.5034,-112.0454,2021-05-15 03:00:00
US,2021-05-15 03:46:43,0.0,"Pleasure Ridge Park, KY",Pleasure Ridge Park,city,0.0,i have had blood clot and an aneurysm in my brain it has been about 20 years ago you,0.0,1,,,,,,,2021-05-15 03:00:00
US,2021-05-15 03:44:08,0.0,"Honolulu, HI",Honolulu,city,0.0,young students line for covid19 immunization but aren elementary students under 10 years supposed to be vacci,0.0,1,Honolulu,HI,Hawaii,Honolulu,21.3294,-157.846,2021-05-15 03:00:00
US,2021-05-15 03:44:06,0.0,"Barberton, OH",Barberton,city,0.0,serious question how come when polio was ravaging the world they didn skip fda approval or voluntary testing an,0.0,1,Barberton,OH,Ohio,Summit,41.0094,-81.6038,2021-05-15 03:00:00
US,2021-05-15 03:43:28,1.0,"Chicago, IL",Chicago,city,0.0,hey been vaccinated week ago m okay nothing wild happened but im still wearing my mask at all times amp keepi,0.0,1,Chicago,IL,Illinois,Cook,41.8373,-87.6862,2021-05-15 03:00:00
US,2021-05-15 03:42:47,2.0,"Topanga, CA",Topanga,city,0.0,post covid socializing like,0.0,1,Topanga,CA,California,Los Angeles,34.0964,-118.6053,2021-05-15 03:00:00
US,2021-05-15 03:42:25,1.0,"North Decatur, GA",North Decatur,city,0.0,mask or no mask vaccine or no vaccine imma still need ppl to give me my 6 feet,0.0,0,North Decatur,GA,Georgia,DeKalb,33.8073,-84.2889,2021-05-15 03:00:00
US,2021-05-15 03:39:46,0.0,"Rinc贸n, Puerto Rico",Rinc贸n,city,0.0,all bow to house pfizer the victorious,0.0,1,,,,,,,2021-05-15 03:00:00
US,2021-05-15 03:39:31,1.0,"Arlington, VA",Arlington,city,0.0,the vents around the mouth and nose makes your mask rather poor choice for combating covid,0.0,0,Arlington,VA,Virginia,Arlington,38.8786,-77.1011,2021-05-15 03:00:00
US,2021-05-15 03:39:24,0.0,"Fort Lauderdale, FL",Fort Lauderdale,city,0.0,jennifer the bad karma you point at in another person has strange way of comin,0.0,0,Fort Lauderdale,FL,Florida,Broward,26.1412,-80.1464,2021-05-15 03:00:00
US,2021-05-15 03:38:55,0.0,"Los Angeles, CA",Los Angeles,city,0.0,isn it weird how mcds got kiosks for taking your own order then covid happened and now everything is contactless,0.0,0,Los Angeles,CA,California,Los Angeles,34.1139,-118.4068,2021-05-15 03:00:00
US,2021-05-15 03:37:34,4.0,"Pittsburg, CA",Pittsburg,city,1.0,covid killed planned huge expensive party for grantees to rally 4 juliet ellis amp harlan kelly of,0.0,1,Pittsburg,CA,California,Contra Costa,38.0182,-121.8964,2021-05-15 03:00:00
US,2021-05-15 03:37:32,6.0,"Orlando, FL",Orlando,city,1.0,we will not require proof of vaccine but ask our guests to be respectfully comply,0.0,1,Orlando,FL,Florida,Orange,28.4772,-81.3369,2021-05-15 03:00:00
US,2021-05-15 03:34:58,1.0,"Reston, VA",Reston,city,0.0,nice to have strength back off covid here we go nats,0.0,1,Reston,VA,Virginia,Fairfax,38.9497,-77.3461,2021-05-15 03:00:00
US,2021-05-15 03:34:09,5.0,"Huntertown, IN",Huntertown,city,0.0,gov dewine could offer me 1 million dollars and promise you would not take the vaccine,0.0,1,Huntertown,IN,Indiana,Allen,41.2155,-85.1715,2021-05-15 03:00:00
US,2021-05-15 03:33:24,0.0,"Lincoln, NE",Lincoln,city,0.0,slice team eating pizza slices and potatoes for lunch at before accepting our camp,0.0,1,Lincoln,NE,Nebraska,Lancaster,40.809,-96.6788,2021-05-15 03:00:00
US,2021-05-15 03:32:50,0.0,"Cheektowaga, NY",Cheektowaga,city,1.0,this just in modifying their masks policy for some of it parks masks not required for fully vacci,0.0,1,,,,,,,2021-05-15 03:00:00
US,2021-05-15 03:32:28,1.0,"Orlando, FL",Orlando,city,0.0,asians do it out of courtesy there was stigma here to do so with covid that has gone away thin,0.0,1,Orlando,FL,Florida,Orange,28.4772,-81.3369,2021-05-15 03:00:00
US,2021-05-15 03:31:53,0.0,"Long Beach, CA",Long Beach,city,0.0,because here at least 50 of population has got at least one doze of the vaccine,0.0,1,Long Beach,CA,California,Los Angeles,33.7981,-118.1675,2021-05-15 03:00:00
US,2021-05-15 03:30:35,1.0,"Fishers, IN",Fishers,city,0.0,if could work my manufacturing quality control position from home would do it in heart beat i,0.0,1,Fishers,IN,Indiana,Hamilton,39.9589,-85.9661,2021-05-15 03:00:00
US,2021-05-15 03:30:29,1.0,"Port Jervis, NY",Port Jervis,city,0.0,it won covid is an iq test,0.0,1,Port Jervis,NY,New York,Orange,41.3783,-74.6909,2021-05-15 03:00:00
US,2021-05-15 03:29:55,0.0,"West Sacramento, CA",West Sacramento,city,0.0,washington unified and are hosting covid 19 vaccine clinics in west sacramento for students 12 and,0.0,1,West Sacramento,CA,California,Yolo,38.5557,-121.5504,2021-05-15 03:00:00
US,2021-05-15 03:29:50,3.0,"Colorado Springs, CO",Colorado Springs,city,0.0,nice simple post covid shot 2 grilled chick n grits like geema used make colorado,0.0,1,Colorado Springs,CO,Colorado,El Paso,38.8674,-104.7606,2021-05-15 03:00:00
US,2021-05-15 03:29:48,1.0,"Mayfield Heights, OH",Mayfield Heights,city,0.0,my father died in july last year non covid related he was always man of faith but he was never overbearing 8n,0.0,0,Mayfield Heights,OH,Ohio,Cuyahoga,41.5175,-81.4534,2021-05-15 03:00:00
US,2021-05-15 03:29:04,0.0,"Boston, MA",Boston,city,0.0,i hate how covid has changed everything people really be acting and forgetting that people have allergies and norma,0.0,0,Boston,MA,Massachusetts,Suffolk,42.3188,-71.0846,2021-05-15 03:00:00
US,2021-05-15 03:29:04,0.0,"Los Angeles, CA",Los Angeles,city,0.0,i get it now even though the vaccine doesn guarantee immunity long term safety lower transmission rates or ev,0.0,1,Los Angeles,CA,California,Los Angeles,34.1139,-118.4068,2021-05-15 03:00:00
US,2021-05-15 03:29:00,0.0,"Westbrook, ME",Westbrook,city,0.0,this is sad most are unvaccinated it feels similar to reading about automobile death,0.0,0,Westbrook,ME,Maine,Cumberland,43.6954,-70.3539,2021-05-15 03:00:00
US,2021-05-15 03:28:31,1.0,"Inglewood-Finn Hill, WA",Inglewood-Finn Hill,city,0.0,t minus 7 days until moderna for me eyes on the prize,0.0,1,,,,,,,2021-05-15 03:00:00
US,2021-05-15 03:27:39,0.0,"Hewitt, TX",Hewitt,city,0.0,i listening to your covid 19 vaccine questions answered from latino usa on my kwbu app,0.0,1,Hewitt,TX,Texas,McLennan,31.452,-97.196,2021-05-15 03:00:00
US,2021-05-15 03:27:32,4.0,"San Diego, CA",San Diego,city,2.0,democratic lawmakers in both chambers of congress have 100 vaccination rate against covid 19 survey of c,0.0,1,San Diego,CA,California,San Diego,32.8312,-117.1225,2021-05-15 03:00:00
US,2021-05-15 03:25:34,0.0,"Minneapolis, MN",Minneapolis,city,0.0,can someone like take large net throw it over toss her in one of those w,0.0,1,Minneapolis,MN,Minnesota,Hennepin,44.9635,-93.2678,2021-05-15 03:00:00
US,2021-05-15 03:25:24,0.0,"West Menlo Park, CA",West Menlo Park,city,0.0,agree with the invariants theory but even with that what if there a once in century ev,0.0,1,West Menlo Park,CA,California,San Mateo,37.4338,-122.2034,2021-05-15 03:00:00
US,2021-05-15 03:25:13,0.0,"Brighton, MI",Brighton,city,0.0,unpopular opinion did pfizer give me covid,0.0,1,Brighton,MI,Michigan,Livingston,42.5298,-83.7847,2021-05-15 03:00:00
US,2021-05-15 03:25:06,0.0,"Manhattan, NY",Manhattan,city,0.0,embarrassing and irresponsible to reject the vaccine and enable the develop,0.0,0,Manhattan,NY,New York,New York,40.7834,-73.9662,2021-05-15 03:00:00
US,2021-05-15 03:23:25,0.0,"San Diego, CA",San Diego,city,0.0,i think some series attempts at finishing their seasons via zoom or via animation or whatever during c,0.0,1,San Diego,CA,California,San Diego,32.8312,-117.1225,2021-05-15 03:00:00
US,2021-05-15 03:21:49,10.0,"Greenwood Village, CO",Greenwood Village,city,1.0,all pandemic long scientists brawled over how the virus spreads droplets no aerosols at the heart of the figh,1.0,0,Greenwood Village,CO,Colorado,Arapahoe,39.6152,-104.913,2021-05-15 03:00:00
US,2021-05-15 03:21:48,2.0,"Providence, RI",Providence,city,0.0,have 1 million vaccine doses banner will travel,1.0,1,Providence,RI,Rhode Island,Providence,41.823,-71.4187,2021-05-15 03:00:00
US,2021-05-15 03:20:53,1.0,"Lafayette, CO",Lafayette,city,0.0,i screen shot it today but look you guys do,0.0,1,Lafayette,CO,Colorado,Boulder,39.9949,-105.0997,2021-05-15 03:00:00
US,2021-05-15 03:18:40,7.0,"Nashville, TN",Nashville,city,1.0,nashville starts shot for beer shot for cup vaccine incentive,1.0,1,Nashville,TN,Tennessee,Davidson,36.1715,-86.7843,2021-05-15 03:00:00
US,2021-05-15 03:17:43,0.0,"Chicago, IL",Chicago,city,0.0,my covid wardrobe might kill this dude,0.0,0,Chicago,IL,Illinois,Cook,41.8373,-87.6862,2021-05-15 03:00:00
US,2021-05-15 03:17:28,1.0,"Laredo, TX",Laredo,city,0.0,i was teasing in my previous post but bc my vax is older than the average trial amp all i,0.0,0,Laredo,TX,Texas,Webb,27.5629,-99.4875,2021-05-15 03:00:00
US,2021-05-15 03:17:24,0.0,"Denver, CO",Denver,city,0.0,hopefully your luck will run out and you ll understand how indiscriminate covid is and maybe you shou,0.0,1,Denver,CO,Colorado,Denver,39.7621,-104.8759,2021-05-15 03:00:00
US,2021-05-15 03:17:19,0.0,"Pittsburgh, PA",Pittsburgh,city,0.0,the only thing people listen to what simon says looking around you have to wonder how many peo,0.0,1,Pittsburgh,PA,Pennsylvania,Allegheny,40.4396,-79.9762,2021-05-15 03:00:00
US,2021-05-15 03:16:22,2.0,"Los Angeles, CA",Los Angeles,city,0.0,covid aerosols miasma is back baybeee,0.0,1,Los Angeles,CA,California,Los Angeles,34.1139,-118.4068,2021-05-15 03:00:00
US,2021-05-15 03:16:12,1.0,"Pearland, TX",Pearland,city,0.0,i feel like we re about to see big increase in covid cases but ok,0.0,1,Pearland,TX,Texas,Brazoria,29.5585,-95.3215,2021-05-15 03:00:00
US,2021-05-15 03:15:33,0.0,"Colonia, NJ",Colonia,city,0.0,people really make up their own facts about covid and post them online,0.0,1,Colonia,NJ,New Jersey,Middlesex,40.5929,-74.3151,2021-05-15 03:00:00
US,2021-05-15 03:15:32,9.0,"Phoenix, AZ",Phoenix,city,0.0,oh dear god covid made me forget that people do the wave at these things,1.0,1,Phoenix,AZ,Arizona,Maricopa,33.5722,-112.0891,2021-05-15 03:00:00
US,2021-05-15 03:15:05,1.0,"Tipton, IA",Tipton,city,0.0,as far as m concerned with anti mask ant,0.0,0,Tipton,IA,Iowa,Cedar,41.7701,-91.1283,2021-05-15 03:00:00
US,2021-05-15 03:13:37,11.0,"Brooklyn, NY",Brooklyn,city,0.0,kinda wild how my arm went from the worst it ever felt this morning to perfectly fine now following my second mo,0.0,1,Brooklyn,NY,New York,Kings,40.6501,-73.9496,2021-05-15 03:00:00
US,2021-05-15 03:11:51,4.0,"Raleigh, NC",Raleigh,city,0.0,governor roy lifted the mandate and people out here like covid never happened bro,0.0,1,Raleigh,NC,North Carolina,Wake,35.8325,-78.6435,2021-05-15 03:00:00
US,2021-05-15 03:11:45,0.0,"Charlotte, NC",Charlotte,city,0.0,why are there still so many old people dammit covid you had one job,0.0,1,Charlotte,NC,North Carolina,Mecklenburg,35.208,-80.8304,2021-05-15 03:00:00
US,2021-05-15 03:11:29,1.0,"Tampa, FL",Tampa,city,0.0,some of all need to keep your mask on and not because of covid,0.0,1,Tampa,FL,Florida,Hillsborough,27.9942,-82.4451,2021-05-15 03:00:00
US,2021-05-15 03:11:12,0.0,"Loveland, CO",Loveland,city,0.0,i am unsure of exactly how many rooms are under contract right now but yes the city,0.0,1,Loveland,CO,Colorado,Larimer,40.4166,-105.0623,2021-05-15 03:00:00
US,2021-05-15 03:10:47,0.0,"Brooklyn, NY",Brooklyn,city,0.0,cdc said it about to be hot girl summer covid step aside,0.0,1,Brooklyn,NY,New York,Kings,40.6501,-73.9496,2021-05-15 03:00:00
US,2021-05-15 03:10:40,0.0,"Honolulu, HI",Honolulu,city,0.0,want to work at cvs health we re hiring in honolulu hi click the link in our bio for details on this job and mor,0.0,1,Honolulu,HI,Hawaii,Honolulu,21.3294,-157.846,2021-05-15 03:00:00
US,2021-05-15 03:09:29,2.0,"Raleigh, NC",Raleigh,city,0.0,why was donut shop promoting the vaccine they are promoting obesity and other health iissies,0.0,1,Raleigh,NC,North Carolina,Wake,35.8325,-78.6435,2021-05-15 03:00:00
US,2021-05-15 03:09:09,1.0,"Orlando, FL",Orlando,city,0.0,my mom is immunocompromised and cannot take the vaccine if still want to wear one mind your own business,0.0,1,Orlando,FL,Florida,Orange,28.4772,-81.3369,2021-05-15 03:00:00
US,2021-05-15 03:08:04,12.0,"Swampscott, MA",Swampscott,city,15.0,artificial intelligence accurately predicts if covid 19 patients will develop life threatening complications,0.0,0,,,,,,,2021-05-15 03:00:00
US,2021-05-15 03:07:44,0.0,"Prairieville, LA",Prairieville,city,0.0,giving somebody 1000 to go back to work when you guarantee them 600 for staying at home is the definition of insa,0.0,1,Prairieville,LA,Louisiana,Ascension,30.3151,-90.9571,2021-05-15 03:00:00
US,2021-05-15 03:06:09,2.0,"Frederick, MD",Frederick,city,0.0,i ve gotten covid been vaccinated and will still wear mask,0.0,1,Frederick,MD,Maryland,Frederick,39.4336,-77.4141,2021-05-15 03:00:00
US,2021-05-15 03:05:44,0.0,"Duarte, CA",Duarte,city,0.0,covid segregation coming to town near,0.0,1,Duarte,CA,California,Los Angeles,34.161,-117.9504,2021-05-15 03:00:00
US,2021-05-15 03:04:21,1.0,"Portland, OR",Portland,city,0.0,kids aren vaxxed variants are spreading immunocompromised people thrown under the bus ny yan,0.0,1,Portland,OR,Oregon,Multnomah,45.5372,-122.65,2021-05-15 03:00:00
US,2021-05-15 03:04:16,2.0,"Pukalani, HI",Pukalani,city,0.0,got the 1st pfizer dose king kekaulike high school,0.0,1,Pukalani,HI,Hawaii,Maui,20.8329,-156.3415,2021-05-15 03:00:00
US,2021-05-15 03:01:54,0.0,"Raleigh, NC",Raleigh,city,0.0,question why would krispie kreme provide an incentive to get vaccine meanwhile they promote obesity,0.0,1,Raleigh,NC,North Carolina,Wake,35.8325,-78.6435,2021-05-15 03:00:00
US,2021-05-15 03:01:30,1.0,"Toledo, OH",Toledo,city,1.0,toledo police officers are the super spreader of covid 19,0.0,1,Toledo,OH,Ohio,Lucas,41.6639,-83.5822,2021-05-15 03:00:00
US,2021-05-15 03:00:22,10.0,"Coon Rapids, MN",Coon Rapids,city,0.0,for those of you worry about your first vaccine it was over in 10 seconds and the worst ve got was very mi,0.0,0,Coon Rapids,MN,Minnesota,Anoka,45.1755,-93.3095,2021-05-15 03:00:00
US,2021-05-15 03:00:06,0.0,"San Francisco, CA",San Francisco,city,0.0,our human fav covid pic is tv reporter on air with nice blouse but out of view she got underwear on,0.0,1,San Francisco,CA,California,San Francisco,37.7562,-122.443,2021-05-15 03:00:00
US,2021-05-15 02:59:58,25.0,"Fairview Shores, FL",Fairview Shores,city,9.0,from face coverings will no longer be required for guests at seaworld orlando and seaworld s,1.0,0,Fairview Shores,FL,Florida,Orange,28.602,-81.3948,2021-05-15 02:00:00
US,2021-05-15 02:59:35,2.0,"Evanston, IL",Evanston,city,0.0,your boy trump also got the vaccine,0.0,1,Evanston,IL,Illinois,Cook,42.0463,-87.6942,2021-05-15 02:00:00
US,2021-05-15 02:57:06,0.0,"Crofton, MD",Crofton,city,0.0,i am watching my recording of your show tonight amp loving are discussing exactly how feel about this,0.0,1,Crofton,MD,Maryland,Anne Arundel,39.0144,-76.68,2021-05-15 02:00:00
US,2021-05-15 02:56:22,0.0,"Lenexa, KS",Lenexa,city,0.0,not bad entertaining enough for movie filmed during covid 6 8 10,0.0,1,Lenexa,KS,Kansas,Johnson,38.9609,-94.8018,2021-05-15 02:00:00
US,2021-05-15 02:56:01,0.0,"Tampa, FL",Tampa,city,0.0,did you get your vaccine yet,0.0,1,Tampa,FL,Florida,Hillsborough,27.9942,-82.4451,2021-05-15 02:00:00
US,2021-05-15 02:55:07,2.0,"McKees Rocks, PA",McKees Rocks,city,0.0,as bad as the pirates are always enjoy going to game the couple thousand there tonight went absolutely ape sh,0.0,0,McKees Rocks,PA,Pennsylvania,Allegheny,40.4688,-80.063,2021-05-15 02:00:00
US,2021-05-15 02:54:05,2.0,"Raleigh, NC",Raleigh,city,1.0,i starting to feel not sorry for those who still contract covid lived my life normally this past year and stil,0.0,1,Raleigh,NC,North Carolina,Wake,35.8325,-78.6435,2021-05-15 02:00:00
US,2021-05-15 02:53:22,2.0,"Old Jefferson, LA",Old Jefferson,city,0.0,not being allowed to throw the ball around bc of covid is in contention for one of the stupidest and most ridiculous things ve ever heard,0.0,0,Old Jefferson,LA,Louisiana,East Baton Rouge,30.3776,-91.006,2021-05-15 02:00:00
US,2021-05-15 02:52:20,0.0,"Whitesville, NJ",Whitesville,city,0.0,is disconnecting people in nj who can pay and are struggling because of covid job loss,0.0,0,,,,,,,2021-05-15 02:00:00
US,2021-05-15 02:52:10,1.0,"Cody, WY",Cody,city,0.0,but covid lives in the air all air stop being insensitive,0.0,0,Cody,WY,Wyoming,Park,44.5212,-109.0549,2021-05-15 02:00:00
US,2021-05-15 02:52:07,0.0,"Des Peres, MO",Des Peres,city,0.0,fully vaxxed mask mandate lifted first time back at our favorite friday night spot since covid yeah why,0.0,1,Des Peres,MO,Missouri,St. Louis,38.5973,-90.448,2021-05-15 02:00:00
US,2021-05-15 02:51:30,1.0,"Houston, TX",Houston,city,0.0,y all didn tell me my arm would be this sore taking that vaccine,0.0,0,Houston,TX,Texas,Harris,29.7863,-95.3889,2021-05-15 02:00:00
US,2021-05-15 02:51:12,0.0,"Los Angeles, CA",Los Angeles,city,0.0,waiting for someone to drop mixtape called moderna dreamz,0.0,0,Los Angeles,CA,California,Los Angeles,34.1139,-118.4068,2021-05-15 02:00:00
US,2021-05-15 02:50:40,0.0,"Kaneohe, HI",Kaneohe,city,0.0,awwrrite awwrrite awwrrite pau hana time baby made it through another covid 19 day,0.0,1,Kaneohe,HI,Hawaii,Honolulu,21.4062,-157.7904,2021-05-15 02:00:00
US,2021-05-15 02:50:03,0.0,"Wichita, KS",Wichita,city,0.0,he said it due to covid numbers are still bad in la,0.0,0,Wichita,KS,Kansas,Sedgwick,37.6896,-97.3442,2021-05-15 02:00:00
US,2021-05-15 02:50:02,1.0,"Missoula, MT",Missoula,city,0.0,on our boat so far just up and down the east coast and the bahamas we were in the bahamas,0.0,1,Missoula,MT,Montana,Missoula,46.875,-114.0214,2021-05-15 02:00:00
US,2021-05-15 02:49:05,0.0,"Albuquerque, NM",Albuquerque,city,0.0,she a little brown shirt in lock step with the progressive america is bad brigade her and her il,0.0,0,Albuquerque,NM,New Mexico,Bernalillo,35.1053,-106.6464,2021-05-15 02:00:00
US,2021-05-15 02:48:35,2.0,"Sault Ste Marie, MI",Sault Ste Marie,city,0.0,i had that with the second moderna shot besides the headache and the chills absolutely starving ate l,0.0,0,,,,,,,2021-05-15 02:00:00
US,2021-05-15 02:48:32,0.0,"Ogden, UT",Ogden,city,0.0,wow thread by thread brilliant piece on rebekah jones supposedly covid whist,0.0,1,Ogden,UT,Utah,Weber,41.2278,-111.9682,2021-05-15 02:00:00
US,2021-05-15 02:47:29,1.0,"Boston, MA",Boston,city,0.0,i just bought some cute face masks at target m fully vaccinated but still ain playing with covid when m in,0.0,1,Boston,MA,Massachusetts,Suffolk,42.3188,-71.0846,2021-05-15 02:00:00
US,2021-05-15 02:47:26,3.0,"Houston, TX",Houston,city,0.0,you do realize the main reason it so bad in india is their lack of resources for covid,0.0,0,Houston,TX,Texas,Harris,29.7863,-95.3889,2021-05-15 02:00:00
US,2021-05-15 02:46:21,0.0,"Miami, FL",Miami,city,0.0,new locally produced vaccines against covid 19 in the past few days as the socialist government has ramped up an,0.0,1,Miami,FL,Florida,Miami-Dade,25.7839,-80.2102,2021-05-15 02:00:00
US,2021-05-15 02:45:51,0.0,"Corpus Christi, TX",Corpus Christi,city,0.0,there no better feeling then manifesting change on your own willpower and having the ability to say no when wor,0.0,1,Corpus Christi,TX,Texas,Nueces,27.726,-97.3755,2021-05-15 02:00:00
US,2021-05-15 02:45:35,3.0,"St Louis Park, MN",St Louis Park,city,0.0,i heard story on the radio today where member of mpls city council claimed some don have access to vaccine,0.0,1,,,,,,,2021-05-15 02:00:00
US,2021-05-15 02:45:05,1.0,"Ripon, CA",Ripon,city,0.0,been saying since the beginning ve put way worse into my body than any vaccine,0.0,0,Ripon,CA,California,San Joaquin,37.7417,-121.131,2021-05-15 02:00:00
US,2021-05-15 02:44:55,2.0,"Pevely, MO",Pevely,city,0.0,anyone experiencing abnormal adverse side effects from the pfizer vaccine m 1 2 vaxxed and my health has taken a,0.0,0,Pevely,MO,Missouri,Jefferson,38.2863,-90.4005,2021-05-15 02:00:00
US,2021-05-15 02:43:44,1.0,"Haslett, MI",Haslett,city,0.0,covid is the worst,0.0,0,Haslett,MI,Michigan,Ingham,42.7525,-84.402,2021-05-15 02:00:00
US,2021-05-15 02:43:43,1.0,"St Louis Park, MN",St Louis Park,city,0.0,i am finding it hard to believe now that anyone who wants one doesn have enough access to vaccines for covid in,0.0,0,,,,,,,2021-05-15 02:00:00
US,2021-05-15 02:43:23,3.0,"Henderson, NV",Henderson,city,0.0,i say to my son m proud of you he says for what not wanting to die of covid yes for that in the boo,0.0,1,Henderson,NV,Nevada,Clark,36.0133,-115.038,2021-05-15 02:00:00
US,2021-05-15 02:43:21,22.0,"Los Angeles, CA",Los Angeles,city,1.0,i haven had house guest in over year due to covid and this lady right here is the best guest and friend ther,1.0,1,Los Angeles,CA,California,Los Angeles,34.1139,-118.4068,2021-05-15 02:00:00
US,2021-05-15 02:42:19,2.0,"Tyler, TX",Tyler,city,0.0,interesting read few weeks too late for my evolution class though discussed rates of spread of variants and w,0.0,1,Tyler,TX,Texas,Smith,32.3184,-95.3062,2021-05-15 02:00:00
US,2021-05-15 02:42:12,0.0,"Charlotte, NC",Charlotte,city,0.0,covid sucks ever since got it my body isn the same brain fog is bad like try retaining things and can,0.0,0,Charlotte,NC,North Carolina,Mecklenburg,35.208,-80.8304,2021-05-15 02:00:00
US,2021-05-15 02:41:14,1.0,"Chicago, IL",Chicago,city,0.0,vaccine got me eating like crazy,0.0,1,Chicago,IL,Illinois,Cook,41.8373,-87.6862,2021-05-15 02:00:00
US,2021-05-15 02:40:30,1.0,"Jefferson, OH",Jefferson,city,0.0,because the vaccine lottery has put our buckeye state in the news,0.0,1,Jefferson,OH,Ohio,Ashtabula,41.7384,-80.7689,2021-05-15 02:00:00
US,2021-05-15 02:39:22,3.0,"Pismo Beach, CA",Pismo Beach,city,0.0,trader joe is the first major retailer to drop its indoor mask requirement for fully vaccinated customers after t,0.0,0,Pismo Beach,CA,California,San Luis Obispo,35.1484,-120.6492,2021-05-15 02:00:00
US,2021-05-15 02:39:09,1.0,"Philadelphia, PA",Philadelphia,city,0.0,yup and concerts too we moved down here at the start of covid so just starting to see what we ve been missing,0.0,0,Philadelphia,PA,Pennsylvania,Philadelphia,40.0077,-75.1339,2021-05-15 02:00:00
US,2021-05-15 02:38:56,0.0,"Cleveland, OH",Cleveland,city,1.0,i bet the scammers start selling vaccine cards,0.0,1,Cleveland,OH,Ohio,Cuyahoga,41.4767,-81.6804,2021-05-15 02:00:00
US,2021-05-15 02:38:39,1.0,"Rinc贸n, Puerto Rico",Rinc贸n,city,0.0,my second moderna was surprisingly brutal 10 hours of fever and joint aches and skull crackers,0.0,0,,,,,,,2021-05-15 02:00:00
US,2021-05-15 02:37:59,0.0,"Washington, DC",Washington,city,0.0,this is totally insane pov if you really want to you can get an mrna vaccine after az,0.0,0,Washington,DC,District of Columbia,District of Columbia,38.9047,-77.0163,2021-05-15 02:00:00
US,2021-05-15 02:37:56,0.0,"Los Angeles, CA",Los Angeles,city,0.0,this is for the vaccine card though,0.0,1,Los Angeles,CA,California,Los Angeles,34.1139,-118.4068,2021-05-15 02:00:00
US,2021-05-15 02:37:01,1.0,"Philadelphia, PA",Philadelphia,city,0.0,tf you talking about it closed to cars now and guess you didn hear but it reopening to cars,0.0,1,Philadelphia,PA,Pennsylvania,Philadelphia,40.0077,-75.1339,2021-05-15 02:00:00
US,2021-05-15 02:36:44,0.0,"Winchester, VA",Winchester,city,0.0,my baby havent seen her for while bc of covid but get frequent updates from my mom lmaooo,0.0,1,Winchester,VA,Virginia,Winchester,39.1735,-78.1746,2021-05-15 02:00:00
US,2021-05-15 02:35:15,2.0,"Oakland, CA",Oakland,city,0.0,ousd schools will be hosting pop up vaccine clinics starting tuesday 5 18 students who are at least 12 years old,0.0,1,Oakland,CA,California,Alameda,37.7903,-122.2165,2021-05-15 02:00:00
US,2021-05-15 02:35:13,1.0,"Fort Drum, NY",Fort Drum,city,0.0,i mean get why new york still has covid curfew but ugh just want milkshake or ice cream or something why m,0.0,0,Fort Drum,NY,New York,Jefferson,44.0451,-75.7847,2021-05-15 02:00:00
US,2021-05-15 02:34:58,0.0,"Mechanicsville, VA",Mechanicsville,city,0.0,if im going to get it again the vaccine wouldn have prevented it having it and beating it produces,0.0,0,Mechanicsville,VA,Virginia,Hanover,37.6262,-77.3561,2021-05-15 02:00:00
US,2021-05-15 02:34:50,5.0,"Indianola, IA",Indianola,city,1.0,board of trustees meeting today in featured in earlier this week,0.0,1,Indianola,IA,Iowa,Warren,41.3629,-93.5652,2021-05-15 02:00:00
US,2021-05-15 02:31:52,1.0,"New Iberia, LA",New Iberia,city,0.0,i took off my mask with my therapist 2 weeks ago he had covid in december received antibody treatment,0.0,1,New Iberia,LA,Louisiana,Iberia,30.0049,-91.8202,2021-05-15 02:00:00
US,2021-05-15 02:31:52,325.0,"Lafayette, LA",Lafayette,city,59.0,final stimulus 1000 payable to everyone who has gotten the vaccine watch those numbers ratchet up that is carrot,1.0,1,Lafayette,LA,Louisiana,Lafayette,30.2084,-92.0323,2021-05-15 02:00:00
US,2021-05-15 02:31:18,0.0,"Bel-Nor, MO",Bel-Nor,city,0.0,my brother has to take immunosuppressants and it unclear if the vaccine will do him any good at all,0.0,1,Bel-Nor,MO,Missouri,St. Louis,38.7017,-90.318,2021-05-15 02:00:00
US,2021-05-15 02:30:31,2.0,"Clarksville, TN",Clarksville,city,0.0,basically like if covid or the vaccine don take me out my own body will,0.0,1,Clarksville,TN,Tennessee,Montgomery,36.5695,-87.342,2021-05-15 02:00:00
US,2021-05-15 02:29:57,0.0,"Whittier, CA",Whittier,city,0.0,dtr just text me this 1st time back since covid,0.0,1,Whittier,CA,California,Los Angeles,33.9678,-118.0188,2021-05-15 02:00:00
US,2021-05-15 02:27:35,0.0,"Brooklyn, NY",Brooklyn,city,0.0,and the liberty won there home opener that arena went crazy it may not have been packed crowd due to covid b,0.0,1,Brooklyn,NY,New York,Kings,40.6501,-73.9496,2021-05-15 02:00:00
US,2021-05-15 02:27:33,0.0,"Fishers, IN",Fishers,city,0.0,only seen 1 down here in line for covid vaccine not the,0.0,1,Fishers,IN,Indiana,Hamilton,39.9589,-85.9661,2021-05-15 02:00:00
US,2021-05-15 02:27:21,0.0,"Houston, TX",Houston,city,0.0,she was trying to be so strong but could tell that she was struggling later found out that her mother is curr,0.0,0,Houston,TX,Texas,Harris,29.7863,-95.3889,2021-05-15 02:00:00
US,2021-05-15 02:27:21,0.0,"Houston, TX",Houston,city,0.0,i spoke to her outside of class and found out that he was in cuba and that he died of covid the tears welled up in,0.0,0,Houston,TX,Texas,Harris,29.7863,-95.3889,2021-05-15 02:00:00
US,2021-05-15 02:27:16,3.0,"Raleigh, NC",Raleigh,city,0.0,covid is over and m going over to my bf house,0.0,1,Raleigh,NC,North Carolina,Wake,35.8325,-78.6435,2021-05-15 02:00:00
US,2021-05-15 02:27:12,4.0,"Ottawa, KS",Ottawa,city,0.0,thanks coach can take any minute on the court for granted only good thing about covid is it giving me another,0.0,1,Ottawa,KS,Kansas,Franklin,38.6,-95.2642,2021-05-15 02:00:00
US,2021-05-15 02:25:36,5.0,"Edmond, OK",Edmond,city,0.0,raise your hand if you ve gotten an annual flu shot for years but sometimes got mild or even bad flu the vax,1.0,0,Edmond,OK,Oklahoma,Oklahoma,35.6689,-97.4159,2021-05-15 02:00:00
US,2021-05-15 02:24:04,0.0,"Torrance, CA",Torrance,city,0.0,covid 21 but it gives everyone tornadoes,0.0,1,Torrance,CA,California,Los Angeles,33.8346,-118.3417,2021-05-15 02:00:00
US,2021-05-15 02:22:58,0.0,"Levittown, PA",Levittown,city,0.0,don need your pity had covid too and it was horrible 7 days of throwing up isn,0.0,0,Levittown,PA,Pennsylvania,Bucks,40.1537,-74.853,2021-05-15 02:00:00
US,2021-05-15 02:21:56,0.0,"Idaho Falls, ID",Idaho Falls,city,0.0,i agree as to why some don receive the vaccine except what you are saying is not corre,0.0,1,Idaho Falls,ID,Idaho,Bonneville,43.4872,-112.0362,2021-05-15 02:00:00
US,2021-05-15 02:21:16,1.0,"Los Angeles, CA",Los Angeles,city,0.0,anything is better than full onset covid get vaccinated,0.0,1,Los Angeles,CA,California,Los Angeles,34.1139,-118.4068,2021-05-15 02:00:00
US,2021-05-15 02:18:11,0.0,"Los Angeles, CA",Los Angeles,city,0.0,the vast majority are not getting covid it never said it was 100 protective but it greatly reduces the chances of getting it,0.0,1,Los Angeles,CA,California,Los Angeles,34.1139,-118.4068,2021-05-15 02:00:00
US,2021-05-15 02:17:30,0.0,"Arlington, VA",Arlington,city,0.0,this is my rarity in not just as an lgbtq with tribe ancestors,0.0,1,Arlington,VA,Virginia,Arlington,38.8786,-77.1011,2021-05-15 02:00:00
US,2021-05-15 02:16:43,2.0,"Tumwater, WA",Tumwater,city,0.0,this is why m not ready to stop masking yet plus my state only being at 38 vaccinated and being somewhat imm,0.0,0,Tumwater,WA,Washington,Thurston,46.989,-122.9173,2021-05-15 02:00:00
US,2021-05-15 02:16:40,1.0,"Burlington, VT",Burlington,city,0.0,i just realized my first group meal out in restaurant since covid started will be next week with my work team,0.0,1,Burlington,VT,Vermont,Chittenden,44.4877,-73.2314,2021-05-15 02:00:00
US,2021-05-15 02:16:23,0.0,"Austin, TX",Austin,city,0.0,finally was robbed of my august 2020 show fuck covid,0.0,0,Austin,TX,Texas,Travis,30.3004,-97.7522,2021-05-15 02:00:00
US,2021-05-15 02:14:46,1.0,"Grand Rapids, MI",Grand Rapids,city,0.0,we are gonna need who is gonna monitor this at the stores and businesses are they g,0.0,1,Grand Rapids,MI,Michigan,Kent,42.962,-85.6562,2021-05-15 02:00:00
US,2021-05-15 02:14:12,8.0,"Raleigh, NC",Raleigh,city,0.0,we might have gotten to this point even faster if he hadn botched the early vaccine roll out so badly but gues,0.0,0,Raleigh,NC,North Carolina,Wake,35.8325,-78.6435,2021-05-15 02:00:00
US,2021-05-15 02:13:54,2.0,"Chicago, IL",Chicago,city,0.0,i think need to both take my cats to the vet and burn my apartment to the ground and build anew at,0.0,1,Chicago,IL,Illinois,Cook,41.8373,-87.6862,2021-05-15 02:00:00
US,2021-05-15 02:13:48,0.0,"Nashville, TN",Nashville,city,0.0,i more afraid of the vaccine than am of getting covid,0.0,1,Nashville,TN,Tennessee,Davidson,36.1715,-86.7843,2021-05-15 02:00:00
US,2021-05-15 02:13:27,0.0,"Queens, NY",Queens,city,0.0,2nd pfizer dose really knocked me for loop and gave my teenager daughter migraines usually lasts for about 24 hours,0.0,1,Queens,NY,New York,Queens,40.7498,-73.7976,2021-05-15 02:00:00
US,2021-05-15 02:11:11,2.0,"Seattle, WA",Seattle,city,0.0,i was afraid had missed this forever after it was taken down last time and wasn allowed into ca,0.0,0,Seattle,WA,Washington,King,47.6211,-122.3244,2021-05-15 02:00:00
US,2021-05-15 02:11:10,1.0,"Orlando, FL",Orlando,city,1.0,no masks just pickles can wait to recreate this picture at soon got my vaccine and now i,0.0,0,Orlando,FL,Florida,Orange,28.4772,-81.3369,2021-05-15 02:00:00
US,2021-05-15 02:11:01,1.0,"Arlington, VA",Arlington,city,0.0,dear indian politicians my most cherished uncle passed away few minutes ago he worked very hard for one of you,0.0,1,Arlington,VA,Virginia,Arlington,38.8786,-77.1011,2021-05-15 02:00:00
US,2021-05-15 02:09:32,2.0,"Irvine, CA",Irvine,city,0.0,awesome shot horrible shirt,0.0,1,Irvine,CA,California,Orange,33.6772,-117.7738,2021-05-15 02:00:00
US,2021-05-15 02:09:29,0.0,"Framingham, MA",Framingham,city,0.0,why do you think the entire medical profession wears them ve had the real fl,0.0,1,Framingham,MA,Massachusetts,Middlesex,42.3085,-71.4368,2021-05-15 02:00:00
US,2021-05-15 02:08:49,0.0,"Amarillo, TX",Amarillo,city,0.0,fuck you have family members the died because covid and wearing mask could have saved them you out t,0.0,0,Amarillo,TX,Texas,Potter,35.1988,-101.8311,2021-05-15 02:00:00
US,2021-05-15 02:07:40,0.0,"Baltimore, MD",Baltimore,city,0.0,this shit boutta get hectic ima stay masked up tho ain getting no vaccine,0.0,0,Baltimore,MD,Maryland,Baltimore,39.3051,-76.6144,2021-05-15 02:00:00
US,2021-05-15 02:07:37,1.0,"Brooklyn, NY",Brooklyn,city,0.0,i feel sorry for you if you came out of school thinking that love my students taugh,0.0,1,Brooklyn,NY,New York,Kings,40.6501,-73.9496,2021-05-15 02:00:00
US,2021-05-15 02:05:40,0.0,"Phoenix, AZ",Phoenix,city,0.0,i hope you re continuing to feel well and kick covid to the curb soon,0.0,1,Phoenix,AZ,Arizona,Maricopa,33.5722,-112.0891,2021-05-15 02:00:00
US,2021-05-15 02:05:35,14.0,"Phoenix, AZ",Phoenix,city,2.0,glendale beats phoenix college in game two of best of three series action resumes saturday 5 15 21 at 12 00pm at p,0.0,1,Phoenix,AZ,Arizona,Maricopa,33.5722,-112.0891,2021-05-15 02:00:00
US,2021-05-15 02:04:44,0.0,"Colonial Park, PA",Colonial Park,city,0.0,feeling alright so far after my first covid 19 vaccine shot yesterday evening next one will be in early june,0.0,1,Colonial Park,PA,Pennsylvania,Dauphin,40.2997,-76.8068,2021-05-15 02:00:00
US,2021-05-15 02:04:27,1.0,"Phoenix, AZ",Phoenix,city,0.0,these families inspired me cdc new masking guidance when can you stop wearing mask from pfizer vaccination,1.0,1,Phoenix,AZ,Arizona,Maricopa,33.5722,-112.0891,2021-05-15 02:00:00
US,2021-05-15 02:02:44,0.0,"Fairview, CA",Fairview,city,0.0,ahh called according to the microchip you got your second shot 28 days ago,0.0,1,Fairview,CA,California,Alameda,37.676,-122.048,2021-05-15 02:00:00
US,2021-05-15 02:02:28,2.0,"Columbus, OH",Columbus,city,0.0,ok if the masks and vaccine work wtf does anyone care if m not vaccinated if your worried where mask,0.0,0,Columbus,OH,Ohio,Franklin,39.9862,-82.985,2021-05-15 02:00:00
US,2021-05-15 02:00:59,4.0,"Montgomery, AL",Montgomery,city,0.0,i too pro vaccine for these twitter arguments bye,0.0,0,Montgomery,AL,Alabama,Montgomery,32.3473,-86.2666,2021-05-15 02:00:00
US,2021-05-15 02:00:41,0.0,"Albertville, AL",Albertville,city,0.0,i am not am 74 and have been quarantined 3 times no covid had my second shot 3 19 2021 have dealt,0.0,0,Albertville,AL,Alabama,Marshall,34.2634,-86.2107,2021-05-15 02:00:00
US,2021-05-15 02:00:33,0.0,"Baltimore, MD",Baltimore,city,0.0,i just got second moderna im chillin,0.0,1,Baltimore,MD,Maryland,Baltimore,39.3051,-76.6144,2021-05-15 02:00:00
US,2021-05-15 02:00:23,1.0,"Hollister, CA",Hollister,city,0.0,anyone feel achey or feverery after the first moderna shot just wanna know what to expect,0.0,1,Hollister,CA,California,San Benito,36.8563,-121.3981,2021-05-15 02:00:00
US,2021-05-15 02:00:03,22.0,"Los Angeles, CA",Los Angeles,city,0.0,does the rest of america not realize how incredibly slow the vaccine rollout was in california and l,0.0,1,Los Angeles,CA,California,Los Angeles,34.1139,-118.4068,2021-05-15 02:00:00
US,2021-05-15 01:59:13,1.0,"Fremont, CA",Fremont,city,0.0,good to highlight it on twitter separately too,0.0,1,Fremont,CA,California,Alameda,37.5265,-121.9852,2021-05-15 01:00:00
US,2021-05-15 01:58:34,0.0,"San Francisco, CA",San Francisco,city,0.0,my distress signal was the cause of corona and covid from corona hieghts in sf we are invaded by very dangerous,0.0,0,San Francisco,CA,California,San Francisco,37.7562,-122.443,2021-05-15 01:00:00
US,2021-05-15 01:58:29,1.0,"Fremont, CA",Fremont,city,0.0,completely agree referenced in the post,0.0,1,Fremont,CA,California,Alameda,37.5265,-121.9852,2021-05-15 01:00:00
US,2021-05-15 01:58:02,1.0,"New Paltz, NY",New Paltz,city,0.0,going to start my personalized vitamin regiment but idk if should wait until after get my 2nd covid vaccine tomorrow,0.0,1,,,,,,,2021-05-15 01:00:00
US,2021-05-15 01:58:02,1.0,"Wind Gap, PA",Wind Gap,city,0.0,young teens get pfizer vaccine in monroe county,0.0,1,Wind Gap,PA,Pennsylvania,Northampton,40.8484,-75.2917,2021-05-15 01:00:00
US,2021-05-15 01:57:54,0.0,"Virginia Beach, VA",Virginia Beach,city,0.0,north carolina lifts all capacity gathering limits amp mask requirements in most settings effective immediately,1.0,1,Virginia Beach,VA,Virginia,Virginia Beach,36.7335,-76.0435,2021-05-15 01:00:00
US,2021-05-15 01:57:28,11.0,"Dallas, TX",Dallas,city,0.0,first concert since covid and with my favorite canadian,0.0,1,Dallas,TX,Texas,Dallas,32.7936,-96.7662,2021-05-15 01:00:00
US,2021-05-15 01:57:16,0.0,"Warwick, NY",Warwick,city,0.0,like sings on the road again so happy you are back ou,0.0,1,,,,,,,2021-05-15 01:00:00
US,2021-05-15 01:56:58,0.0,"Danville, VA",Danville,city,0.0,cdc we need for yall to fuck around so we can find out breakthrough covid 19 infections in fully vaccinated p,0.0,0,Danville,VA,Virginia,Danville,36.5831,-79.4087,2021-05-15 01:00:00
US,2021-05-15 01:56:52,0.0,"Cape Coral, FL",Cape Coral,city,0.0,i be happy about this announcement if walmart and publix actually had mandate of some sort in place but,0.0,1,Cape Coral,FL,Florida,Lee,26.6446,-81.9956,2021-05-15 01:00:00
US,2021-05-15 01:55:58,0.0,"Framingham, MA",Framingham,city,0.0,i had covid in march of 2020 it a nightmare since the mask mandate haven,0.0,1,Framingham,MA,Massachusetts,Middlesex,42.3085,-71.4368,2021-05-15 01:00:00
US,2021-05-15 01:55:57,1.0,"Phoenix, AZ",Phoenix,city,0.0,is there covid mercy rule asking for team,0.0,1,Phoenix,AZ,Arizona,Maricopa,33.5722,-112.0891,2021-05-15 01:00:00
US,2021-05-15 01:55:39,0.0,"Vancouver, WA",Vancouver,city,0.0,i saw her at winery in portland just before covid she is unbelievably good and her backup singer,0.0,1,Vancouver,WA,Washington,Clark,45.6366,-122.5967,2021-05-15 01:00:00
US,2021-05-15 01:55:38,1.0,"Palo Alto, CA",Palo Alto,city,0.0,i was completely out of it yesterday that 2nd shot slaps hard man feeling better today,0.0,1,Palo Alto,CA,California,Santa Clara,37.3913,-122.1468,2021-05-15 01:00:00
US,2021-05-15 01:54:50,0.0,"Gardnertown, NY",Gardnertown,city,0.0,we re hiring click to apply pharmacist covid vaccine support ny,1.0,1,Gardnertown,NY,New York,Orange,41.5328,-74.0594,2021-05-15 01:00:00
US,2021-05-15 01:52:55,0.0,"Citrus Hills, FL",Citrus Hills,city,0.0,i refuse to get vaccinated and refuse to wear mask haven worn mask anywhere go have been ou,0.0,0,Citrus Hills,FL,Florida,Citrus,28.887,-82.4312,2021-05-15 01:00:00
US,2021-05-15 01:52:47,2.0,"Palatine Bridge, NY",Palatine Bridge,city,0.0,thank you and for making this 12 year old girl dream come true s,0.0,1,Palatine Bridge,NY,New York,Montgomery,42.9143,-74.5756,2021-05-15 01:00:00
US,2021-05-15 01:50:55,2.0,"Five Points, OH",Five Points,city,1.0,anti vaccine activist robert kennedy jr one of the disinformation dozen who has promoted the long disc,0.0,1,Five Points,OH,Ohio,Warren,39.5595,-84.1867,2021-05-15 01:00:00
US,2021-05-15 01:50:38,46.0,"Batavia, IL",Batavia,city,0.0,you re conflating positive case with getting sick with is wrong most kids are asymptomatic,0.0,0,Batavia,IL,Illinois,Kane,41.8479,-88.311,2021-05-15 01:00:00
US,2021-05-15 01:50:28,0.0,"Salt Lake City, UT",Salt Lake City,city,0.0,guys there the number one reason for you all to get vaccinated erectile dysfunction caused by covid get vaxxed ke,0.0,0,Salt Lake City,UT,Utah,Salt Lake,40.7777,-111.9306,2021-05-15 01:00:00
US,2021-05-15 01:50:28,0.0,"Houston, TX",Houston,city,1.0,our community partner is having covid 19 vaccine distribution please visit,0.0,1,Houston,TX,Texas,Harris,29.7863,-95.3889,2021-05-15 01:00:00
US,2021-05-15 01:50:09,0.0,"Westlake, OH",Westlake,city,0.0,f ker carlson got the vaccine and will not admit it to his brain dead viewers go ahead and tell them the truth,0.0,0,Westlake,OH,Ohio,Cuyahoga,41.4524,-81.9295,2021-05-15 01:00:00
US,2021-05-15 01:50:02,1.0,"Vancouver, WA",Vancouver,city,0.0,the hardest thing about covid is missing live music brandi carlile is my second favorite woman,0.0,1,Vancouver,WA,Washington,Clark,45.6366,-122.5967,2021-05-15 01:00:00
US,2021-05-15 01:48:49,0.0,"Janesville, WI",Janesville,city,0.0,i believe team facilities are closed for covid,0.0,1,Janesville,WI,Wisconsin,Rock,42.6855,-89.0136,2021-05-15 01:00:00
US,2021-05-15 01:48:28,1.0,"Maryland Heights, MO",Maryland Heights,city,0.0,i for covid passports,0.0,1,Maryland Heights,MO,Missouri,St. Louis,38.7189,-90.4749,2021-05-15 01:00:00
US,2021-05-15 01:47:32,0.0,"Jonesborough, TN",Jonesborough,city,0.0,so if got my 2 shots in january then after june do lose my protection from covid 19,0.0,0,Jonesborough,TN,Tennessee,Washington,36.2959,-82.4766,2021-05-15 01:00:00
US,2021-05-15 01:46:44,0.0,"Fresno, CA",Fresno,city,0.0,this is what ve been saying how are you going to know if people are being truthful about being vaccinated what,0.0,1,Fresno,CA,California,Fresno,36.7831,-119.7941,2021-05-15 01:00:00
US,2021-05-15 01:46:34,0.0,"San Antonio, TX",San Antonio,city,0.0,my arm is so sore from this vaccine might die,0.0,0,San Antonio,TX,Texas,Bexar,29.4658,-98.5253,2021-05-15 01:00:00
US,2021-05-15 01:45:18,0.0,"Houston, TX",Houston,city,0.0,i don know if something ate or this damn vaccine shot but literally can stay off the toilet my booty hurts,0.0,0,Houston,TX,Texas,Harris,29.7863,-95.3889,2021-05-15 01:00:00
US,2021-05-15 01:45:11,1.0,"Houston, TX",Houston,city,0.0,please take the vaccine you ll be helping yourself and others please,0.0,1,Houston,TX,Texas,Harris,29.7863,-95.3889,2021-05-15 01:00:00
US,2021-05-15 01:44:53,6.0,"Queens, NY",Queens,city,1.0,getting couple xanax with your shot would probably help vaccine rates better than french fries,0.0,1,Queens,NY,New York,Queens,40.7498,-73.7976,2021-05-15 01:00:00
US,2021-05-15 01:44:11,2.0,"Redwood City, CA",Redwood City,city,0.0,oh well whatever nevermind m already feeling sick,0.0,1,Redwood City,CA,California,San Mateo,37.5026,-122.2252,2021-05-15 01:00:00
US,2021-05-15 01:43:58,2.0,"Yorba Linda, CA",Yorba Linda,city,0.0,that the problem you don know ppl that are not vaccinated are the ones who could be carriers,0.0,0,Yorba Linda,CA,California,Orange,33.889,-117.7714,2021-05-15 01:00:00
US,2021-05-15 01:43:54,1.0,"Omaha, NE",Omaha,city,0.0,thanks for the heads up wouldn take my pet to a,0.0,1,Omaha,NE,Nebraska,Douglas,41.2627,-96.0522,2021-05-15 01:00:00
US,2021-05-15 01:43:49,1.0,"Houston, TX",Houston,city,0.0,please take the vaccine we need you to be as healthy as possible you deserve to enjoy this season of life,0.0,1,Houston,TX,Texas,Harris,29.7863,-95.3889,2021-05-15 01:00:00
US,2021-05-15 01:42:43,1.0,"Athens, GA",Athens,city,0.0,the article read about these cases seems to describ,0.0,1,Athens,GA,Georgia,Clarke,33.9508,-83.3689,2021-05-15 01:00:00
US,2021-05-15 01:42:43,2.0,"San Antonio, TX",San Antonio,city,0.0,somebody meet me at tonight cause my bitchass friends are sick they don have covid tho don trip,0.0,0,San Antonio,TX,Texas,Bexar,29.4658,-98.5253,2021-05-15 01:00:00
US,2021-05-15 01:42:17,11.0,"Atlanta, GA",Atlanta,city,2.0,you have to ask yourself why are they hell bent on this vaccine but they have no cure for aids and cancer but the,0.0,0,Atlanta,GA,Georgia,Fulton,33.7627,-84.4224,2021-05-15 01:00:00
US,2021-05-15 01:41:39,0.0,"Mableton, GA",Mableton,city,0.0,i have been committed to masks over the last 14 months to prevent the spread of covid am fully vacci,0.0,1,Mableton,GA,Georgia,Cobb,33.8132,-84.5656,2021-05-15 01:00:00
US,2021-05-15 01:41:14,0.0,"Brooklyn, NY",Brooklyn,city,0.0,i know m supposed to have as much protection as possible right now with my vaccine but would still like you to,0.0,1,Brooklyn,NY,New York,Kings,40.6501,-73.9496,2021-05-15 01:00:00
US,2021-05-15 01:40:41,0.0,"Memphis, TN",Memphis,city,0.0,vaccine rate vs vaccine rate with cheese vs goat workload is the best graph ever,0.0,1,Memphis,TN,Tennessee,Shelby,35.1046,-89.9773,2021-05-15 01:00:00
US,2021-05-15 01:40:35,0.0,"Charlotte, NC",Charlotte,city,1.0,this whole tweet is bullshit once get the covid vaccine have the strain yes can contract it but think of i,0.0,0,Charlotte,NC,North Carolina,Mecklenburg,35.208,-80.8304,2021-05-15 01:00:00
US,2021-05-15 01:40:03,0.0,"Chicago, IL",Chicago,city,0.0,not sure that the beat message the vaccine is there for them everywhere had five appointmen,0.0,0,Chicago,IL,Illinois,Cook,41.8373,-87.6862,2021-05-15 01:00:00
US,2021-05-15 01:39:59,0.0,"Clarendon Hills, IL",Clarendon Hills,city,0.0,less people wearing masks equals more people getting covid americans make me laugh,0.0,1,Clarendon Hills,IL,Illinois,DuPage,41.7981,-87.9569,2021-05-15 01:00:00
US,2021-05-15 01:39:39,5.0,"Clovis, CA",Clovis,city,0.0,covid isn over half our country still isn vaccinated mostly because of calculated misinformati,0.0,1,Clovis,CA,California,Fresno,36.8278,-119.6831,2021-05-15 01:00:00
US,2021-05-15 01:39:35,0.0,"Baltimore, MD",Baltimore,city,0.0,i gotta see who all die first before take the vaccine,0.0,0,Baltimore,MD,Maryland,Baltimore,39.3051,-76.6144,2021-05-15 01:00:00
US,2021-05-15 01:39:22,0.0,"Bronx, NY",Bronx,city,0.0,i still wearing mine around groups of people you can still get the virus or variant with the vaccine,0.0,1,Bronx,NY,New York,Bronx,40.8501,-73.8662,2021-05-15 01:00:00
US,2021-05-15 01:38:52,0.0,"St Johnsbury, VT",St Johnsbury,city,0.0,today has been an awesome day for me am very happy that got the vaccine,0.0,1,,,,,,,2021-05-15 01:00:00
US,2021-05-15 01:37:39,0.0,"New Brighton, MN",New Brighton,city,0.0,the city of new brighton offers vaccinations to those 18 on wednesdays from 11 30am 5 00pm at the community cent,0.0,1,New Brighton,MN,Minnesota,Ramsey,45.0658,-93.206,2021-05-15 01:00:00
US,2021-05-15 01:37:21,0.0,"Huntington Beach, CA",Huntington Beach,city,0.0,complete breakdown of leadership tough talk didn get you vaccine maybe some allies should be utiliz,0.0,0,Huntington Beach,CA,California,Orange,33.696,-118.0025,2021-05-15 01:00:00
US,2021-05-15 01:36:54,0.0,"Chicago, IL",Chicago,city,0.0,oh anti vaxxer just stop covid worries me not the vaccines,0.0,0,Chicago,IL,Illinois,Cook,41.8373,-87.6862,2021-05-15 01:00:00
US,2021-05-15 01:36:32,1.0,"Wahiawa, HI",Wahiawa,city,0.0,adventures in covid 19 me takes sip of water me that not water me to coworkers who sprite is this cowo,0.0,1,Wahiawa,HI,Hawaii,Honolulu,21.5005,-158.0198,2021-05-15 01:00:00
US,2021-05-15 01:34:08,0.0,"Las Cruces, NM",Las Cruces,city,0.0,so you want me to not be able to understand what people are saying because need to lipr,0.0,1,Las Cruces,NM,New Mexico,Do帽a Ana,32.3265,-106.7892,2021-05-15 01:00:00
US,2021-05-15 01:34:01,7.0,"Phoenix, AZ",Phoenix,city,0.0,teen received 1st vaccine shot dad is off the vent after 10 days things are looking up,0.0,1,Phoenix,AZ,Arizona,Maricopa,33.5722,-112.0891,2021-05-15 01:00:00
US,2021-05-15 01:33:49,0.0,"Des Moines, IA",Des Moines,city,0.0,anyone wanna take guesses on who gotten the vaccine and who refusing,0.0,0,Des Moines,IA,Iowa,Polk,41.5725,-93.6105,2021-05-15 01:00:00
US,2021-05-15 01:33:10,0.0,"Brooklyn, NY",Brooklyn,city,0.0,in the year 3021 niggas will uncover live stream footage of tom brady getting the vaccine and it will be virtual,0.0,0,Brooklyn,NY,New York,Kings,40.6501,-73.9496,2021-05-15 01:00:00
US,2021-05-15 01:32:10,0.0,"Riviera Beach, MD",Riviera Beach,city,0.0,if you don have your full vaccine keep your mask on,0.0,1,Riviera Beach,MD,Maryland,Anne Arundel,39.1628,-76.5263,2021-05-15 01:00:00
US,2021-05-15 01:31:54,0.0,"Petaluma, CA",Petaluma,city,0.0,want to work at cvs health we re hiring in ca click for details,1.0,1,Petaluma,CA,California,Sonoma,38.2423,-122.6267,2021-05-15 01:00:00
US,2021-05-15 01:31:39,5.0,"Phoenix, AZ",Phoenix,city,0.0,14 year old is vaccinated yes have permission to share and she picked the picture,0.0,1,Phoenix,AZ,Arizona,Maricopa,33.5722,-112.0891,2021-05-15 01:00:00
US,2021-05-15 01:30:41,0.0,"Brownsburg, IN",Brownsburg,city,0.0,good questions it both the vaccine helps prevent the,0.0,1,Brownsburg,IN,Indiana,Hendricks,39.833,-86.3824,2021-05-15 01:00:00
US,2021-05-15 01:30:31,0.0,"Anaheim, CA",Anaheim,city,0.0,that vaccine fucked me up,0.0,0,Anaheim,CA,California,Orange,33.839,-117.8572,2021-05-15 01:00:00
US,2021-05-15 01:30:14,3.0,"North Little Rock, AR",North Little Rock,city,0.0,have had both moderna shots ll continue to mask up because some people are too stupid amp selfish,0.0,0,North Little Rock,AR,Arkansas,Pulaski,34.7808,-92.2371,2021-05-15 01:00:00
US,2021-05-15 01:30:00,0.0,"Los Angeles, CA",Los Angeles,city,0.0,and your take on this,0.0,1,Los Angeles,CA,California,Los Angeles,34.1139,-118.4068,2021-05-15 01:00:00
US,2021-05-15 01:29:36,0.0,"Denver, CO",Denver,city,0.0,i did when asked to workout at friend of friend home gym and the owner who also had covid told,0.0,1,Denver,CO,Colorado,Denver,39.7621,-104.8759,2021-05-15 01:00:00
US,2021-05-15 01:28:47,2.0,"San Francisco, CA",San Francisco,city,0.0,vaccine passports aren new though ve had one for years from world travel,0.0,1,San Francisco,CA,California,San Francisco,37.7562,-122.443,2021-05-15 01:00:00
US,2021-05-15 01:28:45,0.0,"Seattle, WA",Seattle,city,0.0,no but there is real resistance among many to accept science that challenges what,0.0,1,Seattle,WA,Washington,King,47.6211,-122.3244,2021-05-15 01:00:00
US,2021-05-15 01:28:31,3.0,"Brooklyn, NY",Brooklyn,city,0.0,i plan on wearing my mask around people everywhere no matter what until i can finally get my second vaccine mid,0.0,0,Brooklyn,NY,New York,Kings,40.6501,-73.9496,2021-05-15 01:00:00
US,2021-05-15 01:27:59,0.0,"Menifee, CA",Menifee,city,0.0,i work at in school in california children are not required to wear mask not one case of covid since have bee,0.0,1,Menifee,CA,California,Riverside,33.6909,-117.1849,2021-05-15 01:00:00
US,2021-05-15 01:27:59,0.0,"Concord, CA",Concord,city,0.0,i happy to say m fully vaccinated encourage you to get your vaccine if you re worried about the side effect,0.0,1,Concord,CA,California,Contra Costa,37.9722,-122.0016,2021-05-15 01:00:00
US,2021-05-15 01:27:38,0.0,"Mount Vernon, IN",Mount Vernon,city,0.0,if you re looking for work in in check out this job,1.0,1,Mount Vernon,IN,Indiana,Posey,37.9364,-87.8959,2021-05-15 01:00:00
US,2021-05-15 01:27:29,0.0,"Virginia Beach, VA",Virginia Beach,city,0.0,jesus christ like who sending their kid solo to get vaccine obviously the parent takes them,0.0,1,Virginia Beach,VA,Virginia,Virginia Beach,36.7335,-76.0435,2021-05-15 01:00:00
US,2021-05-15 01:27:00,1.0,"Austin, TX",Austin,city,0.0,beautiful tweet of the week well done on the way to get my fourth vaccine myself,0.0,1,Austin,TX,Texas,Travis,30.3004,-97.7522,2021-05-15 01:00:00
US,2021-05-15 01:26:43,0.0,"Chicago, IL",Chicago,city,0.0,hi think it not clear if we need the boosters yet pfizer and moderna retain immuni,0.0,0,Chicago,IL,Illinois,Cook,41.8373,-87.6862,2021-05-15 01:00:00
US,2021-05-15 01:26:03,0.0,"Lincoln, NE",Lincoln,city,0.0,when covid restrictions are lifted will we see ftr in the world tag league,0.0,1,Lincoln,NE,Nebraska,Lancaster,40.809,-96.6788,2021-05-15 01:00:00
US,2021-05-15 01:25:20,0.0,"Hampton, VA",Hampton,city,0.0,i think this covid just needs to take out the stupid people,0.0,0,Hampton,VA,Virginia,Hampton,37.0551,-76.363,2021-05-15 01:00:00
US,2021-05-15 01:24:26,1.0,"Austin, TX",Austin,city,1.0,clean up the trail do something productive for we are educated and can find the damn vaccine,0.0,1,Austin,TX,Texas,Travis,30.3004,-97.7522,2021-05-15 01:00:00
US,2021-05-15 01:21:43,1.0,"New Braunfels, TX",New Braunfels,city,0.0,lmao bitch stfu got my second vaccine,0.0,1,New Braunfels,TX,Texas,Comal,29.6994,-98.1148,2021-05-15 01:00:00
US,2021-05-15 01:21:36,0.0,"Lubbock, TX",Lubbock,city,0.0,you definitely meet the age requirements and you ll be guarding the drink station during camp and your covid year,0.0,1,Lubbock,TX,Texas,Lubbock,33.5659,-101.8878,2021-05-15 01:00:00
US,2021-05-15 01:21:26,0.0,"Los Angeles, CA",Los Angeles,city,0.0,why do people vote for them they don want you to vote or have health care and they re not concerned if we died of,0.0,1,Los Angeles,CA,California,Los Angeles,34.1139,-118.4068,2021-05-15 01:00:00
US,2021-05-15 01:21:01,1.0,"McKeesport, PA",McKeesport,city,0.0,what wonderful free evening out and about like old times thank you moderna,0.0,1,McKeesport,PA,Pennsylvania,Allegheny,40.3419,-79.8439,2021-05-15 01:00:00
US,2021-05-15 01:20:51,0.0,"Downers Grove, IL",Downers Grove,city,0.0,did you get the vaccine yes means you believe in project warp speed,0.0,1,Downers Grove,IL,Illinois,DuPage,41.7949,-88.017,2021-05-15 01:00:00
US,2021-05-15 01:20:50,0.0,"Brooklyn, NY",Brooklyn,city,0.0,i ve lost family members to covid haven lost anyone from getting the vaccine so,0.0,0,Brooklyn,NY,New York,Kings,40.6501,-73.9496,2021-05-15 01:00:00
US,2021-05-15 01:20:45,4.0,"Portland, OR",Portland,city,1.0,1 covid is real dangerous and serious threat to public health 2 safe and effective vaccines are excellent,0.0,1,Portland,OR,Oregon,Multnomah,45.5372,-122.65,2021-05-15 01:00:00
US,2021-05-15 01:20:06,15.0,"Scottsdale, AZ",Scottsdale,city,1.0,a bio tech business owner from minneapolis tells me m so impressed with az and their roll out of the vaccine,0.0,1,Scottsdale,AZ,Arizona,Maricopa,33.6872,-111.8651,2021-05-15 01:00:00
US,2021-05-15 01:19:56,0.0,"San Diego, CA",San Diego,city,0.0,how does our covid 19 numbers look,0.0,1,San Diego,CA,California,San Diego,32.8312,-117.1225,2021-05-15 01:00:00
US,2021-05-15 01:19:33,0.0,"Lakeland, FL",Lakeland,city,0.0,oh so your okay with woman choice to murder an innocent baby by abortion my body my choice but not o,0.0,1,Lakeland,FL,Florida,Polk,28.0556,-81.9545,2021-05-15 01:00:00
US,2021-05-15 01:19:00,0.0,"Downers Grove, IL",Downers Grove,city,0.0,they took the amp vaccine only 68 effective but 99 5 no hospital stays that is why we see no symptoms,0.0,0,Downers Grove,IL,Illinois,DuPage,41.7949,-88.017,2021-05-15 01:00:00
US,2021-05-15 01:17:37,0.0,"Lakeland, FL",Lakeland,city,0.0,just wow your okay with treating people lesser because of their religion or because their doctor recommen,0.0,1,Lakeland,FL,Florida,Polk,28.0556,-81.9545,2021-05-15 01:00:00
US,2021-05-15 01:17:30,0.0,"Grapevine, TX",Grapevine,city,0.0,what the story on the eight vaccinated yankee players that are covid positive now,0.0,1,Grapevine,TX,Texas,Tarrant,32.9343,-97.0744,2021-05-15 01:00:00
US,2021-05-15 01:17:05,3.0,"Manhattan, NY",Manhattan,city,0.0,vaccinated covid devil begone spicy moon vegan west village,0.0,0,Manhattan,NY,New York,New York,40.7834,-73.9662,2021-05-15 01:00:00
US,2021-05-15 01:17:01,4.0,"Atlanta, GA",Atlanta,city,0.0,y all heard what dr danny said it a whole pandemic out here and unmasked fight covid 19 in an aloha glamour,0.0,1,Atlanta,GA,Georgia,Fulton,33.7627,-84.4224,2021-05-15 01:00:00
US,2021-05-15 01:16:59,0.0,"Seattle, WA",Seattle,city,0.0,only saying that trial amp real world data showing these are extraordinarily effect,0.0,1,Seattle,WA,Washington,King,47.6211,-122.3244,2021-05-15 01:00:00
US,2021-05-15 01:16:58,0.0,"Elkins, WV",Elkins,city,0.0,covid sucks my mom amp sister both in hospital with covid pneumonia m positive and sick but so far not in hospital ugh,0.0,1,Elkins,WV,West Virginia,Randolph,38.9237,-79.854,2021-05-15 01:00:00
US,2021-05-15 01:16:49,0.0,"Brooklyn, NY",Brooklyn,city,0.0,will there be vaccine negative test requirement,0.0,0,Brooklyn,NY,New York,Kings,40.6501,-73.9496,2021-05-15 01:00:00
US,2021-05-15 01:16:42,0.0,"Brooklyn, NY",Brooklyn,city,0.0,will there be vaccine negative test requirement,0.0,0,Brooklyn,NY,New York,Kings,40.6501,-73.9496,2021-05-15 01:00:00
US,2021-05-15 01:16:34,5.0,"Serenada, TX",Serenada,city,0.0,i can easily name more people the clintons killed than covid,0.0,0,Serenada,TX,Texas,Williamson,30.6962,-97.6969,2021-05-15 01:00:00
US,2021-05-15 01:16:27,1.0,"Seattle, WA",Seattle,city,0.0,a healthy line for tonight pop up vaccine clinic with sfd burke gilman brewing company,0.0,1,Seattle,WA,Washington,King,47.6211,-122.3244,2021-05-15 01:00:00
US,2021-05-15 01:16:13,8.0,"Baltimore, MD",Baltimore,city,0.0,should ve imposed some covid restrictions on yankees fans attending games at camden yards,0.0,0,Baltimore,MD,Maryland,Baltimore,39.3051,-76.6144,2021-05-15 01:00:00
US,2021-05-15 01:15:53,5.0,"Phoenix, AZ",Phoenix,city,0.0,they re like strains of covid lol,0.0,1,Phoenix,AZ,Arizona,Maricopa,33.5722,-112.0891,2021-05-15 01:00:00
US,2021-05-15 01:15:17,1.0,"Golden Glades, FL",Golden Glades,city,0.0,so are you guys checking the vaccinations cards if there is no control people that are already scared of the,0.0,0,Golden Glades,FL,Florida,Miami-Dade,25.9129,-80.2013,2021-05-15 01:00:00
US,2021-05-15 01:15:17,0.0,"Mission Viejo, CA",Mission Viejo,city,0.0,i glad you guys are getting at least some protection think it ridiculous that outside of the us it,0.0,1,Mission Viejo,CA,California,Orange,33.6095,-117.655,2021-05-15 01:00:00
US,2021-05-15 01:14:56,1.0,"Four Corners, FL",Four Corners,city,0.0,vaccine passports now,0.0,1,,,,,,,2021-05-15 01:00:00
US,2021-05-15 01:14:50,0.0,"Keizer, OR",Keizer,city,0.0,all but one in my family has gotten the vaccine,0.0,1,Keizer,OR,Oregon,Marion,45.0029,-123.0241,2021-05-15 01:00:00
US,2021-05-15 01:14:01,0.0,"Portland, OR",Portland,city,0.0,40 000 covid 19 deaths is tragedy 40 000 gun deaths meh university of portland,0.0,0,Portland,OR,Oregon,Multnomah,45.5372,-122.65,2021-05-15 01:00:00
US,2021-05-15 01:11:42,1.0,"Fonda, NY",Fonda,city,0.0,now threatening and tryna manipulate ppl into getting the vaccine bruh wear mask until we got heard immunity an,0.0,0,Fonda,NY,New York,Montgomery,42.9536,-74.372,2021-05-15 01:00:00
US,2021-05-15 01:11:40,7.0,"McNair, VA",McNair,city,3.0,had kid caught up in the covid year effed up his draft hit spring league covid happened again and now he,0.0,1,McNair,VA,Virginia,Fairfax,38.9513,-77.4116,2021-05-15 01:00:00
US,2021-05-15 01:11:13,0.0,"Alexandria, KY",Alexandria,city,0.0,cheers to surviving the past year of chaos and covid here hoping you can see our faces in 2022,0.0,1,Alexandria,KY,Kentucky,Campbell,38.9621,-84.386,2021-05-15 01:00:00
US,2021-05-15 01:10:41,0.0,"Saginaw Township South, MI",Saginaw Township South,city,0.0,yep it sad know too many people without the vaccine walk around without one now it open game,0.0,0,,,,,,,2021-05-15 01:00:00
US,2021-05-15 01:10:35,3.0,"Seattle, WA",Seattle,city,0.0,a bug flew up my nose during my walk don have nails to fish it out because of renewed nail biting habit than,0.0,1,Seattle,WA,Washington,King,47.6211,-122.3244,2021-05-15 01:00:00
US,2021-05-15 01:09:59,1.0,"Robertsdale, AL",Robertsdale,city,0.0,my ex hasn decided if he going to take the vaccine or not he heard either it makes you sterile he 56 and,0.0,1,Robertsdale,AL,Alabama,Baldwin,30.5534,-87.7023,2021-05-15 01:00:00
US,2021-05-15 01:09:48,0.0,"Los Angeles, CA",Los Angeles,city,0.0,now that outside is opening we re seeing how that covid 19 looks on ya,0.0,1,Los Angeles,CA,California,Los Angeles,34.1139,-118.4068,2021-05-15 01:00:00
US,2021-05-15 01:08:30,6.0,"Manhattan, NY",Manhattan,city,2.0,a year ago today vs now why did covid put me through fucking war,0.0,0,Manhattan,NY,New York,New York,40.7834,-73.9662,2021-05-15 01:00:00
US,2021-05-15 01:08:30,0.0,"Boston, MA",Boston,city,0.0,jabs please hope,0.0,1,Boston,MA,Massachusetts,Suffolk,42.3188,-71.0846,2021-05-15 01:00:00
US,2021-05-15 01:08:12,0.0,"Des Moines, IA",Des Moines,city,0.0,iowa asian alliance amp iowa dept of latino affairs partner to promote covid vacc,0.0,1,Des Moines,IA,Iowa,Polk,41.5725,-93.6105,2021-05-15 01:00:00
US,2021-05-15 01:07:28,0.0,"Denver, CO",Denver,city,0.0,the biggest challenge is execution you need property manager who you trust you need some entrepreneurial zeal,0.0,1,Denver,CO,Colorado,Denver,39.7621,-104.8759,2021-05-15 01:00:00
US,2021-05-15 01:06:46,0.0,"Ladera Ranch, CA",Ladera Ranch,city,0.0,guess that means has no confidence in the vaccine as it is,0.0,1,Ladera Ranch,CA,California,Orange,33.5491,-117.6416,2021-05-15 01:00:00
US,2021-05-15 01:06:07,11.0,"San Francisco, CA",San Francisco,city,0.0,once it seems like most essential workers aren wearing masks and covid numbers are lower ll stop wearing it b,0.0,0,San Francisco,CA,California,San Francisco,37.7562,-122.443,2021-05-15 01:00:00
US,2021-05-15 01:06:05,0.0,"Denver, CO",Denver,city,0.0,if you re not vaccinated you re kinda taking your own risk most people who want vaccine have now been vaccinated,0.0,0,Denver,CO,Colorado,Denver,39.7621,-104.8759,2021-05-15 01:00:00
US,2021-05-15 01:05:59,0.0,"Raleigh, NC",Raleigh,city,0.0,bobby would probably be the only one that any team would realistically be able to afford this summer ot,0.0,1,Raleigh,NC,North Carolina,Wake,35.8325,-78.6435,2021-05-15 01:00:00
US,2021-05-15 01:05:35,0.0,"Greensboro, NC",Greensboro,city,0.0,calling me names makes you an idiot your statement makes no sense by the way the poi,0.0,0,Greensboro,NC,North Carolina,Guilford,36.0956,-79.8269,2021-05-15 01:00:00
US,2021-05-15 01:05:14,0.0,"Kendall, FL",Kendall,city,0.0,international travel waiting for to leave your country and to leave the country you re visiting is lik,0.0,0,Kendall,FL,Florida,Miami-Dade,25.6697,-80.3556,2021-05-15 01:00:00
US,2021-05-15 01:04:56,0.0,"SeaTac, WA",SeaTac,city,0.0,the vaccine is killing people whoa more than covid,0.0,0,SeaTac,WA,Washington,King,47.4444,-122.2986,2021-05-15 01:00:00
US,2021-05-15 01:04:21,1.0,"Concord, CA",Concord,city,0.0,i definitely do not want california to lift the you have to shower and change your clothes on daily basis mandate,0.0,1,Concord,CA,California,Contra Costa,37.9722,-122.0016,2021-05-15 01:00:00
US,2021-05-15 01:03:17,0.0,"Temecula, CA",Temecula,city,0.0,we should stop using the rights framing of vaccine passports think credentials is better framing imho,0.0,1,Temecula,CA,California,Riverside,33.4928,-117.1315,2021-05-15 01:00:00
US,2021-05-15 01:03:13,0.0,"Lewisville, NC",Lewisville,city,0.0,i got that this morning from the staff doing our morning covid check in i,0.0,1,Lewisville,NC,North Carolina,Forsyth,36.103,-80.4164,2021-05-15 01:00:00
US,2021-05-15 01:02:53,0.0,"Oswego, NY",Oswego,city,0.0,500 000 for his covid death stats,0.0,0,Oswego,NY,New York,Oswego,43.4516,-76.5005,2021-05-15 01:00:00
US,2021-05-15 01:02:47,0.0,"Manhattan, NY",Manhattan,city,0.0,does the moderna vaccine protect against zombies m about to find out,0.0,1,Manhattan,NY,New York,New York,40.7834,-73.9662,2021-05-15 01:00:00
US,2021-05-15 01:02:29,4.0,"Sault Ste Marie, MI",Sault Ste Marie,city,0.0,second dose of moderna is kicking my ass feels like the first day of the flu,0.0,0,,,,,,,2021-05-15 01:00:00
US,2021-05-15 01:01:51,0.0,"Golden Glades, FL",Golden Glades,city,0.0,starting tomorrow many places will allow fully vaccinated people to enter without the masks who will contr,0.0,1,Golden Glades,FL,Florida,Miami-Dade,25.9129,-80.2013,2021-05-15 01:00:00
US,2021-05-15 01:01:40,4.0,"Chicago, IL",Chicago,city,0.0,not me using my vaccine card as bookmark,0.0,1,Chicago,IL,Illinois,Cook,41.8373,-87.6862,2021-05-15 01:00:00
US,2021-05-15 01:01:31,0.0,"Los Angeles, CA",Los Angeles,city,0.0,that how feel today after my second vaccine,0.0,1,Los Angeles,CA,California,Los Angeles,34.1139,-118.4068,2021-05-15 01:00:00
US,2021-05-15 01:01:13,1.0,"Watertown, MA",Watertown,city,0.0,we did one at fenway last night too is this the new thing post covid,0.0,1,,,,,,,2021-05-15 01:00:00
US,2021-05-15 01:00:15,6.0,"St Louis, MO",St Louis,city,2.0,just in if you re vaxxed no masks req at busch anymore non people strongly encouraged to still we hope,1.0,1,,,,,,,2021-05-15 01:00:00
US,2021-05-15 00:59:25,0.0,"Brentwood, TN",Brentwood,city,0.0,the covid 19 vaccine is here for kids via,0.0,1,Brentwood,TN,Tennessee,Williamson,35.9918,-86.7758,2021-05-15 00:00:00
US,2021-05-15 00:58:51,0.0,"Fresno, CA",Fresno,city,0.0,all true library summer reading programs can help combat covid slide article,0.0,1,Fresno,CA,California,Fresno,36.7831,-119.7941,2021-05-15 00:00:00
US,2021-05-15 00:57:02,2.0,"San Antonio, TX",San Antonio,city,2.0,san antonio since covid is slowly getting under control am looking to bring the rozu to market days please le,0.0,1,San Antonio,TX,Texas,Bexar,29.4658,-98.5253,2021-05-15 00:00:00
US,2021-05-15 00:57:00,2.0,"Pevely, MO",Pevely,city,0.0,there is information out there on mayo clinic and harvard law websi,0.0,1,Pevely,MO,Missouri,Jefferson,38.2863,-90.4005,2021-05-15 00:00:00
US,2021-05-15 00:56:45,0.0,"Chambersburg, PA",Chambersburg,city,0.0,i fully vaccinated but wearing mask until covid is gone,0.0,1,Chambersburg,PA,Pennsylvania,Franklin,39.9315,-77.6556,2021-05-15 00:00:00
US,2021-05-15 00:56:41,0.0,"Pantops, VA",Pantops,city,0.0,i carrying my vaccine card with me until rhese nitwits decide is we and the pubic are safe these regulations are getting tiresome,0.0,1,Pantops,VA,Virginia,Albemarle,38.0308,-78.4444,2021-05-15 00:00:00
US,2021-05-15 00:55:39,0.0,"Fort Worth, TX",Fort Worth,city,0.0,i found out today that some people believe that someone who doesn want to get the vaccine is conservative,0.0,1,Fort Worth,TX,Texas,Tarrant,32.7811,-97.3473,2021-05-15 00:00:00
US,2021-05-15 00:55:13,0.0,"Des Moines, IA",Des Moines,city,0.0,in dsm celebrates end of covid 19 plague,0.0,1,Des Moines,IA,Iowa,Polk,41.5725,-93.6105,2021-05-15 00:00:00
US,2021-05-15 00:55:08,2.0,"Chicago, IL",Chicago,city,0.0,the fact that can be at bounce at pre covid hours now 11 30pm is absolutely great can get in at least 2 3 m,0.0,1,Chicago,IL,Illinois,Cook,41.8373,-87.6862,2021-05-15 00:00:00
US,2021-05-15 00:54:44,0.0,"Queens, NY",Queens,city,0.0,meanwhile thousands of covid illegals are storming the us border,0.0,1,Queens,NY,New York,Queens,40.7498,-73.7976,2021-05-15 00:00:00
US,2021-05-15 00:54:03,0.0,"Key Largo, FL",Key Largo,city,0.0,because this is new untested vaccine,0.0,1,Key Largo,FL,Florida,Monroe,25.1224,-80.412,2021-05-15 00:00:00
US,2021-05-15 00:53:21,11.0,"Los Angeles, CA",Los Angeles,city,0.0,thought got the vaccine but im terminally ill,0.0,0,Los Angeles,CA,California,Los Angeles,34.1139,-118.4068,2021-05-15 00:00:00
US,2021-05-15 00:53:15,0.0,"Queens, NY",Queens,city,0.0,we need to thank our president trump for taking the initiative on the vaccine currently available,0.0,1,Queens,NY,New York,Queens,40.7498,-73.7976,2021-05-15 00:00:00
US,2021-05-15 00:52:59,1.0,"Mays Chapel, MD",Mays Chapel,city,0.0,2 2 few sinus infections nothing more hopkins docs say covid antibodies won show u,0.0,1,Mays Chapel,MD,Maryland,Baltimore,39.4343,-76.6516,2021-05-15 00:00:00
US,2021-05-15 00:52:06,1.0,"Arlington Heights, IL",Arlington Heights,city,0.0,it was pretty awesome experience met lots of awesome people amp grew lot as person was language,0.0,1,Arlington Heights,IL,Illinois,Cook,42.0955,-87.9825,2021-05-15 00:00:00
US,2021-05-15 00:51:29,0.0,"Minneapolis, MN",Minneapolis,city,0.0,have the schools the kids attend throw campaign to vaccinate the students over 12 and any of their,0.0,1,Minneapolis,MN,Minnesota,Hennepin,44.9635,-93.2678,2021-05-15 00:00:00
US,2021-05-15 00:50:46,0.0,"Lehigh Acres, FL",Lehigh Acres,city,0.0,my best friend who considered my brother died horribly by covid wh,0.0,1,Lehigh Acres,FL,Florida,Lee,26.612,-81.6388,2021-05-15 00:00:00
US,2021-05-15 00:50:38,6.0,"St Paul, MN",St Paul,city,1.0,what did find on bloomington covid website is this graphic it a good reminder that we ve all been through so,0.0,1,,,,,,,2021-05-15 00:00:00
US,2021-05-15 00:50:04,0.0,"Upper Darby, PA",Upper Darby,city,0.0,is about to be who validating the vaccine cards we just have to take y,0.0,1,,,,,,,2021-05-15 00:00:00
US,2021-05-15 00:49:12,23.0,"Los Angeles, CA",Los Angeles,city,2.0,delighted to learn about this initiative which is the country first information repository on beds you can find,1.0,1,Los Angeles,CA,California,Los Angeles,34.1139,-118.4068,2021-05-15 00:00:00
US,2021-05-15 00:48:19,0.0,"Queens, NY",Queens,city,0.0,meanwhile thousands of covid illegals are storming the us border,0.0,1,Queens,NY,New York,Queens,40.7498,-73.7976,2021-05-15 00:00:00
US,2021-05-15 00:47:53,1.0,"Granger, IN",Granger,city,0.0,the media going to do anything they can to make people shunned for not getting the vaccine or wear mask they are,0.0,1,Granger,IN,Indiana,St. Joseph,41.7373,-86.135,2021-05-15 00:00:00
US,2021-05-15 00:47:06,0.0,"Queens, NY",Queens,city,0.0,meanwhile thousands of covid illegals are storming the southern us border,0.0,1,Queens,NY,New York,Queens,40.7498,-73.7976,2021-05-15 00:00:00
US,2021-05-15 00:46:57,1.0,"Charlottesville, VA",Charlottesville,city,0.0,we really need vaccine passports or at least standardized credential asap,0.0,1,Charlottesville,VA,Virginia,Charlottesville,38.0375,-78.4855,2021-05-15 00:00:00
US,2021-05-15 00:46:27,0.0,"Middleton, WI",Middleton,city,0.0,18 more wisconsinites died of covid get vaccinated,0.0,0,Middleton,WI,Wisconsin,Dane,43.1065,-89.5058,2021-05-15 00:00:00
US,2021-05-15 00:46:05,0.0,"Alpena, MI",Alpena,city,0.0,you need to rest for your covid shot,0.0,1,Alpena,MI,Michigan,Alpena,45.074,-83.4399,2021-05-15 00:00:00
US,2021-05-15 00:45:39,4.0,"Haverhill, MA",Haverhill,city,0.0,in recognition of national nurses week treated our nurses at the citizen center vaccine clinic to p,0.0,1,Haverhill,MA,Massachusetts,Essex,42.7838,-71.0871,2021-05-15 00:00:00
US,2021-05-15 00:45:10,0.0,"Staten Island, NY",Staten Island,city,0.0,so the idiot mayor is offering free stuff isn that blackmail would never accept anything from that man can,0.0,0,Staten Island,NY,New York,Richmond,40.5834,-74.1496,2021-05-15 00:00:00
US,2021-05-15 00:45:01,11.0,"Chagrin Falls, OH",Chagrin Falls,city,4.0,a disease so deadly you need to be tested to find out if you have it requires vaccine so safe that they need to p,0.0,1,Chagrin Falls,OH,Ohio,Cuyahoga,41.4321,-81.3887,2021-05-15 00:00:00
US,2021-05-15 00:44:53,0.0,"Camas, WA",Camas,city,0.0,covid same prevention model now as flu,0.0,0,Camas,WA,Washington,Clark,45.6005,-122.4305,2021-05-15 00:00:00
US,2021-05-15 00:44:17,1.0,"Los Angeles, CA",Los Angeles,city,0.0,i trust him on covid other stuff is wait and see,0.0,1,Los Angeles,CA,California,Los Angeles,34.1139,-118.4068,2021-05-15 00:00:00
US,2021-05-15 00:43:53,6.0,"Sacramento, CA",Sacramento,city,2.0,my 15 year old son got his first today what wonderful thing to see so many other kids in this room a,0.0,1,Sacramento,CA,California,Sacramento,38.5667,-121.4683,2021-05-15 00:00:00
US,2021-05-15 00:43:48,7.0,"Los Angeles, CA",Los Angeles,city,0.0,i believe in vaccinating children against to end this pandemic proud of my youngest son for getting his va,0.0,1,Los Angeles,CA,California,Los Angeles,34.1139,-118.4068,2021-05-15 00:00:00
US,2021-05-15 00:43:29,1.0,"Whitesville, NJ",Whitesville,city,0.0,is planning on disconnecting people in nj who can pay and are struggling because of cov,0.0,0,,,,,,,2021-05-15 00:00:00
US,2021-05-15 00:43:21,0.0,"Austin, TX",Austin,city,0.0,folks wasn wearing one before and won be wearing one now and won be getting the vaccine land of the free,0.0,1,Austin,TX,Texas,Travis,30.3004,-97.7522,2021-05-15 00:00:00
US,2021-05-15 00:43:20,0.0,"Citrus Heights, CA",Citrus Heights,city,1.0,any nascar fans in the sacramento area have 2 tickets to the race on june 6th but my ride will not deal with cov,0.0,1,Citrus Heights,CA,California,Sacramento,38.6948,-121.288,2021-05-15 00:00:00
US,2021-05-15 00:43:17,0.0,"Queens, NY",Queens,city,0.0,meanwhile thousands of covid illegals are storming the southern border,0.0,1,Queens,NY,New York,Queens,40.7498,-73.7976,2021-05-15 00:00:00
US,2021-05-15 00:42:30,0.0,"Queens, NY",Queens,city,0.0,meanwhile thousands of covid illegals are storming the southern border,0.0,1,Queens,NY,New York,Queens,40.7498,-73.7976,2021-05-15 00:00:00
US,2021-05-15 00:42:15,2.0,"Seattle, WA",Seattle,city,0.0,lost this boy at the beginning of covid miss this sweet soul everyday,0.0,0,Seattle,WA,Washington,King,47.6211,-122.3244,2021-05-15 00:00:00
US,2021-05-15 00:42:08,1.0,"East Longmeadow, MA",East Longmeadow,city,0.0,the vaccine will shrink his nubby micro penis good thing his vast knowledge and love of,0.0,1,,,,,,,2021-05-15 00:00:00
US,2021-05-15 00:42:04,0.0,"Los Angeles, CA",Los Angeles,city,0.0,people acting like the vaccine lifted the mask rules in the store face mask are still required to enter store y,0.0,1,Los Angeles,CA,California,Los Angeles,34.1139,-118.4068,2021-05-15 00:00:00
US,2021-05-15 00:41:47,0.0,"Dallas, TX",Dallas,city,0.0,i got sick on my first vaccine it lasted few days still went back and got my second it was imp,0.0,0,Dallas,TX,Texas,Dallas,32.7936,-96.7662,2021-05-15 00:00:00
US,2021-05-15 00:41:37,0.0,"Queens, NY",Queens,city,0.0,meanwhile thousands of covid illegals are storming the southern border,0.0,1,Queens,NY,New York,Queens,40.7498,-73.7976,2021-05-15 00:00:00
US,2021-05-15 00:41:33,0.0,"Baltimore, MD",Baltimore,city,0.0,i may finally go on my first concert date now that covid calming down,0.0,1,Baltimore,MD,Maryland,Baltimore,39.3051,-76.6144,2021-05-15 00:00:00
US,2021-05-15 00:41:23,0.0,"Cathedral City, CA",Cathedral City,city,0.0,can you recommend anyone for this job pharmacy technician covid 19 vaccine support,0.0,1,Cathedral City,CA,California,Riverside,33.8363,-116.4642,2021-05-15 00:00:00
US,2021-05-15 00:41:18,0.0,"Greensboro, NC",Greensboro,city,0.0,today was rough and it since the covid vaccine,0.0,1,Greensboro,NC,North Carolina,Guilford,36.0956,-79.8269,2021-05-15 00:00:00
US,2021-05-15 00:40:15,0.0,"Indianapolis, IN",Indianapolis,city,0.0,only reason m intrigued what has better rio paying people to vax or the not so effective messagi,0.0,0,Indianapolis,IN,Indiana,Marion,39.7771,-86.1458,2021-05-15 00:00:00
US,2021-05-15 00:38:42,0.0,"Queens, NY",Queens,city,0.0,meanwhile thousands of covid illegals are storming the southern border,0.0,1,Queens,NY,New York,Queens,40.7498,-73.7976,2021-05-15 00:00:00
US,2021-05-15 00:38:38,0.0,"Pasadena, CA",Pasadena,city,0.0,t cells can live up 9 years so it not like the vaccine will wear off,0.0,0,Pasadena,CA,California,Los Angeles,34.1597,-118.139,2021-05-15 00:00:00
US,2021-05-15 00:38:11,0.0,"Olympia, WA",Olympia,city,0.0,absolutely pro vaccine just not in super hurry either you have no idea how empty my freezer and stuff get lately b,0.0,0,Olympia,WA,Washington,Thurston,47.0417,-122.8959,2021-05-15 00:00:00
US,2021-05-15 00:37:16,1.0,"Taylor, MI",Taylor,city,0.0,though my woman child didn get to experience prom or homecoming due to covid for this year of her senior year of,0.0,1,Taylor,MI,Michigan,Wayne,42.226,-83.2688,2021-05-15 00:00:00
US,2021-05-15 00:37:05,2.0,"Queens, NY",Queens,city,0.0,meanwhile thousands of covid illegals are storming the southern border,0.0,1,Queens,NY,New York,Queens,40.7498,-73.7976,2021-05-15 00:00:00
US,2021-05-15 00:37:05,1.0,"Devola, OH",Devola,city,0.0,of course the inherent nature of the olympics makes it high covid risk no matter what you do but would be far,1.0,0,Devola,OH,Ohio,Washington,39.4739,-81.468,2021-05-15 00:00:00
US,2021-05-15 00:36:49,0.0,"Pevely, MO",Pevely,city,0.0,or maybe big pharma can answer my question,0.0,1,Pevely,MO,Missouri,Jefferson,38.2863,-90.4005,2021-05-15 00:00:00
US,2021-05-15 00:36:34,2.0,"El Paso, TX",El Paso,city,0.0,got the covid vaccine and ve had an erection for over four hours,0.0,1,El Paso,TX,Texas,El Paso,31.8479,-106.4309,2021-05-15 00:00:00
US,2021-05-15 00:36:29,0.0,"Queens, NY",Queens,city,0.0,meanwhile thousands of covid illegals are storming the southern border,0.0,1,Queens,NY,New York,Queens,40.7498,-73.7976,2021-05-15 00:00:00
US,2021-05-15 00:36:14,11.0,"Framingham, MA",Framingham,city,0.0,i had covid in march 2020 six weeks in bed with an uncontrollable cough an on and off fever and tot,0.0,0,Framingham,MA,Massachusetts,Middlesex,42.3085,-71.4368,2021-05-15 00:00:00
US,2021-05-15 00:36:12,1.0,"Tucson, AZ",Tucson,city,0.0,i got my 1st vaccine shot today thank you to and to all workers involved seriously all do yourself a,0.0,1,Tucson,AZ,Arizona,Pima,32.1545,-110.8782,2021-05-15 00:00:00
US,2021-05-15 00:36:00,0.0,"Queens, NY",Queens,city,0.0,meanwhile thousands of covid illegals are storming the southern border,0.0,1,Queens,NY,New York,Queens,40.7498,-73.7976,2021-05-15 00:00:00
US,2021-05-15 00:35:43,0.0,"Westlake, TX",Westlake,city,0.0,ok moderna you win and have pinned me on my back but just for 24 hours,0.0,1,Westlake,TX,Texas,Tarrant,32.981,-97.2038,2021-05-15 00:00:00
US,2021-05-15 00:35:43,1.0,"Corpus Christi, TX",Corpus Christi,city,0.0,never got covid and fully vaccinated,0.0,1,Corpus Christi,TX,Texas,Nueces,27.726,-97.3755,2021-05-15 00:00:00
US,2021-05-15 00:35:43,0.0,"Pevely, MO",Pevely,city,0.0,i in pt ot and speech therapy 5 5 hours day 5 days week was,0.0,1,Pevely,MO,Missouri,Jefferson,38.2863,-90.4005,2021-05-15 00:00:00
US,2021-05-15 00:35:30,0.0,"Queens, NY",Queens,city,0.0,meanwhile thousands of covid illegals are storming the southern border,0.0,1,Queens,NY,New York,Queens,40.7498,-73.7976,2021-05-15 00:00:00
US,2021-05-15 00:34:23,1.0,"Amherst, NY",Amherst,city,0.0,volunteering at the vaccination clinic today if you want the moderna vaccine come and find me,0.0,1,,,,,,,2021-05-15 00:00:00
US,2021-05-15 00:34:21,1.0,"Pevely, MO",Pevely,city,0.0,i get both views but will give you scenario got my pfizer sho,0.0,1,Pevely,MO,Missouri,Jefferson,38.2863,-90.4005,2021-05-15 00:00:00
US,2021-05-15 00:34:14,0.0,"Dallas, TX",Dallas,city,0.0,100 and of guys who have taken any of alex jones super male vitality pills and are 100 anti covid v,0.0,1,Dallas,TX,Texas,Dallas,32.7936,-96.7662,2021-05-15 00:00:00
US,2021-05-15 00:34:01,3.0,"Rolling Meadows, IL",Rolling Meadows,city,0.0,so donuts cash burgers fries six flags tix sox dollars lottery winnings why all the prizes for getting t,0.0,1,Rolling Meadows,IL,Illinois,Cook,42.0747,-88.0252,2021-05-15 00:00:00
US,2021-05-15 00:33:21,0.0,"Memphis, TN",Memphis,city,1.0,covid fucked the whole entire universe up sad,0.0,0,Memphis,TN,Tennessee,Shelby,35.1046,-89.9773,2021-05-15 00:00:00
US,2021-05-15 00:33:15,1.0,"Covington, KY",Covington,city,0.0,can you recommend anyone for this job pharmacist covid vaccine support,1.0,1,Covington,KY,Kentucky,Kenton,39.0334,-84.5166,2021-05-15 00:00:00
US,2021-05-15 00:32:53,0.0,"Dallas, TX",Dallas,city,0.0,they got the amp vaccine 1 dose not the mrna vaccine amp efficacy is lower,0.0,0,Dallas,TX,Texas,Dallas,32.7936,-96.7662,2021-05-15 00:00:00
US,2021-05-15 00:31:24,2.0,"Henderson, NV",Henderson,city,0.0,update buzzy died from covid,0.0,0,Henderson,NV,Nevada,Clark,36.0133,-115.038,2021-05-15 00:00:00
US,2021-05-15 00:31:19,4.0,"Chicago, IL",Chicago,city,0.0,i can wait til all of the covid testing sites return to their pre pandemic selves pop up halloween headquarters,0.0,1,Chicago,IL,Illinois,Cook,41.8373,-87.6862,2021-05-15 00:00:00
US,2021-05-15 00:30:53,0.0,"Lowell, MA",Lowell,city,0.0,i actually agree with you on the vaccine,0.0,1,Lowell,MA,Massachusetts,Middlesex,42.6389,-71.3217,2021-05-15 00:00:00
US,2021-05-15 00:29:54,2.0,"Los Angeles, CA",Los Angeles,city,0.0,ginger coyote pauley perrette reverend kathy cooper ledesma after thanksgiving day feast hollywood united met,0.0,1,Los Angeles,CA,California,Los Angeles,34.1139,-118.4068,2021-05-15 00:00:00
US,2021-05-15 00:28:57,1.0,"Severn, MD",Severn,city,0.0,my ad during the game seen here bet it all on black,0.0,1,Severn,MD,Maryland,Anne Arundel,39.1355,-76.6958,2021-05-15 00:00:00
US,2021-05-15 00:28:38,1.0,"Texarkana, TX",Texarkana,city,0.0,at the gym yesterday dude said he got two weeks off work because he had covid like symptoms so he sai,0.0,1,Texarkana,TX,Texas,Bowie,33.4487,-94.0815,2021-05-15 00:00:00
US,2021-05-15 00:28:36,0.0,"Eagle Pass, TX",Eagle Pass,city,0.0,people really out here paranoid of hidden microchips in the covid vaccine if the government really wanted to track,0.0,0,Eagle Pass,TX,Texas,Maverick,28.7125,-100.484,2021-05-15 00:00:00
US,2021-05-15 00:28:32,5.0,"Austin, TX",Austin,city,0.0,im sorry all this isn a great post if have gonorrhea have 20 90 chance of getting it with unprotected s,0.0,1,Austin,TX,Texas,Travis,30.3004,-97.7522,2021-05-15 00:00:00
US,2021-05-15 00:25:46,0.0,"Atlanta, GA",Atlanta,city,0.0,there is something called the magnet challenge where magnets actually stick to people exactly wher,0.0,1,Atlanta,GA,Georgia,Fulton,33.7627,-84.4224,2021-05-15 00:00:00
US,2021-05-15 00:25:34,1.0,"Hoboken, NJ",Hoboken,city,0.0,we beat covid baby,0.0,1,Hoboken,NJ,New Jersey,Hudson,40.7453,-74.0279,2021-05-15 00:00:00
US,2021-05-15 00:25:08,1.0,"Los Angeles, CA",Los Angeles,city,1.0,one of the interesting things about anger about possible delay to 21st june is the argument from some that all t,1.0,0,Los Angeles,CA,California,Los Angeles,34.1139,-118.4068,2021-05-15 00:00:00
US,2021-05-15 00:24:52,0.0,"Brooklyn, NY",Brooklyn,city,0.0,tw covid vaccination got my 13 year old asd son his first pfizer shot today and you wo,0.0,1,Brooklyn,NY,New York,Kings,40.6501,-73.9496,2021-05-15 00:00:00
US,2021-05-15 00:24:38,2.0,"Carlsborg, WA",Carlsborg,city,1.0,,0.0,1,Carlsborg,WA,Washington,Clallam,48.0842,-123.1697,2021-05-15 00:00:00
US,2021-05-15 00:24:21,0.0,"Indianapolis, IN",Indianapolis,city,0.0,maybe mlb should make attendance limit function of percent of team vaccinated guessing ownership might get invol,0.0,1,Indianapolis,IN,Indiana,Marion,39.7771,-86.1458,2021-05-15 00:00:00
US,2021-05-15 00:23:28,0.0,"Los Angeles, CA",Los Angeles,city,0.0,ginger coyote pauley perrette reverend kathy cooper ledesma after thanksgiving day feast hollywood united met,0.0,1,Los Angeles,CA,California,Los Angeles,34.1139,-118.4068,2021-05-15 00:00:00
US,2021-05-15 00:22:52,0.0,"Chicago, IL",Chicago,city,0.0,as of today now need to deal with identity theft which is seriously testing my sobriety now can bi,0.0,0,Chicago,IL,Illinois,Cook,41.8373,-87.6862,2021-05-15 00:00:00
US,2021-05-15 00:22:52,0.0,"Camas, WA",Camas,city,0.0,texas rangers required masks to enter ballpark then didn care when they came off 3 feet after,0.0,1,Camas,WA,Washington,Clark,45.6005,-122.4305,2021-05-15 00:00:00
US,2021-05-15 00:22:13,3.0,"Anchorage, AK",Anchorage,city,0.0,should get the vaccine sike bitch you thought not for me,0.0,0,Anchorage,AK,Alaska,Anchorage,61.1508,-149.1091,2021-05-15 00:00:00
US,2021-05-15 00:21:50,3.0,"Chicago, IL",Chicago,city,0.0,had former student tell me he refuses to get the vaccine bc he doesn believe vaccine can be made in year h,0.0,1,Chicago,IL,Illinois,Cook,41.8373,-87.6862,2021-05-15 00:00:00
US,2021-05-15 00:20:51,0.0,"Allentown, PA",Allentown,city,0.0,ing es covid 19,0.0,1,Allentown,PA,Pennsylvania,Lehigh,40.5961,-75.4756,2021-05-15 00:00:00
US,2021-05-15 00:19:31,0.0,"Nashville, TN",Nashville,city,0.0,2 things we have waited really long time for pool season to start amp most importantly seeing one of this mama s,0.0,1,Nashville,TN,Tennessee,Davidson,36.1715,-86.7843,2021-05-15 00:00:00
US,2021-05-15 00:19:18,1.0,"Southglenn, CO",Southglenn,city,0.0,i got more sick from the first dose then did when actually had covid,0.0,0,,,,,,,2021-05-15 00:00:00
US,2021-05-15 00:19:17,1.0,"Meridian, ID",Meridian,city,0.0,you may think the chick fil sauce shortage was cause by covid no it was me years of planning and stealing exorb,0.0,0,Meridian,ID,Idaho,Ada,43.6112,-116.3968,2021-05-15 00:00:00
US,2021-05-15 00:18:44,6.0,"Orem, UT",Orem,city,0.0,now that we ve figured out this vaccine stuff need scientists to make all flowers perennials so stop wasting my,0.0,0,Orem,UT,Utah,Utah,40.2983,-111.6992,2021-05-15 00:00:00
US,2021-05-15 00:17:39,25.0,"San Marcos, TX",San Marcos,city,0.0,29 hours post second pfizer shot and m down for the count,0.0,1,San Marcos,TX,Texas,Hays,29.8736,-97.9381,2021-05-15 00:00:00
US,2021-05-15 00:17:31,2.0,"Cape Coral, FL",Cape Coral,city,0.0,yes it is wearing mask protects us from the flu and covid like they say kill two birds with one stone,0.0,1,Cape Coral,FL,Florida,Lee,26.6446,-81.9956,2021-05-15 00:00:00
US,2021-05-15 00:17:29,0.0,"Middletown, CT",Middletown,city,0.0,covid free baby connecticut,0.0,1,Middletown,CT,Connecticut,Middlesex,41.5476,-72.6549,2021-05-15 00:00:00
US,2021-05-15 00:17:10,0.0,"Croton-on-Hudson, NY",Croton-on-Hudson,city,0.0,also if it continues please get checked for post covid syndrome,0.0,1,Croton-on-Hudson,NY,New York,Westchester,41.2005,-73.9002,2021-05-15 00:00:00
US,2021-05-15 00:16:23,17.0,"El Paso, TX",El Paso,city,1.0,sarah got her first vaccine to like the hulk on her band aid,0.0,1,El Paso,TX,Texas,El Paso,31.8479,-106.4309,2021-05-15 00:00:00
US,2021-05-15 00:16:00,0.0,"Beaverton, OR",Beaverton,city,0.0,vaccine effects so far my left arm is really sore m exhausted literally woke up 2 hoursagoand can stay,0.0,0,Beaverton,OR,Oregon,Washington,45.4779,-122.8168,2021-05-15 00:00:00
US,2021-05-15 00:15:57,130.0,"Manhattan, NY",Manhattan,city,113.0,a bulletin warns that extremists may seek to conduct mass casualty attacks now that covid restrictions are,1.0,0,Manhattan,NY,New York,New York,40.7834,-73.9662,2021-05-15 00:00:00
US,2021-05-15 00:15:44,3.0,"Seattle, WA",Seattle,city,0.0,as person who is now immunized against covid m planning to take the cdc guidance and mask less while in publi,0.0,1,Seattle,WA,Washington,King,47.6211,-122.3244,2021-05-15 00:00:00
US,2021-05-15 00:15:25,0.0,"Holly Springs, NC",Holly Springs,city,0.0,vaccine clinic offering moderna vaccine saturday may 22 2021 at holly springs ucc start 9am end 1pm,0.0,1,Holly Springs,NC,North Carolina,Wake,35.653,-78.8397,2021-05-15 00:00:00
US,2021-05-15 00:15:09,1.0,"Pittsburgh, PA",Pittsburgh,city,0.0,i guess between covid 19 and the team sucks that a big crowd,0.0,0,Pittsburgh,PA,Pennsylvania,Allegheny,40.4396,-79.9762,2021-05-15 00:00:00
US,2021-05-15 00:14:24,1.0,"Gonzales, LA",Gonzales,city,0.0,and thank you to dr for supporting the continuation of this work and me your expertise and insi,0.0,1,Gonzales,LA,Louisiana,Ascension,30.2132,-90.9234,2021-05-15 00:00:00
US,2021-05-15 00:13:21,1.0,"Indianapolis, IN",Indianapolis,city,0.0,to whoever tf nasty ass got my son and sick with covid it fuck you,0.0,0,Indianapolis,IN,Indiana,Marion,39.7771,-86.1458,2021-05-15 00:00:00
US,2021-05-15 00:12:48,0.0,"Wahiawa, HI",Wahiawa,city,0.0,if jobs with titles like pharmacy technician covid vaccine support sound appealing to you follow us to hear abo,0.0,1,Wahiawa,HI,Hawaii,Honolulu,21.5005,-158.0198,2021-05-15 00:00:00
US,2021-05-15 00:12:39,2.0,"Fresno, CA",Fresno,city,1.0,correct but believe this was the final push to get hesitant people to get the vaccine while real,0.0,0,Fresno,CA,California,Fresno,36.7831,-119.7941,2021-05-15 00:00:00
US,2021-05-15 00:11:25,0.0,"North Royalton, OH",North Royalton,city,0.0,covid well it shut the entire world down for year so,0.0,1,North Royalton,OH,Ohio,Cuyahoga,41.3138,-81.7452,2021-05-15 00:00:00
US,2021-05-15 00:11:22,1.0,"Chicago, IL",Chicago,city,0.0,it not fair family member that bad mouths vaxxers caught covid and she only sic,0.0,0,Chicago,IL,Illinois,Cook,41.8373,-87.6862,2021-05-15 00:00:00
US,2021-05-15 00:11:02,0.0,"Scottsdale, AZ",Scottsdale,city,0.0,just cause this is getting views and am desperate lost my job to covid was teacher and go,0.0,0,Scottsdale,AZ,Arizona,Maricopa,33.6872,-111.8651,2021-05-15 00:00:00
US,2021-05-15 00:10:28,0.0,"Coral Gables, FL",Coral Gables,city,0.0,i am beyond thrilled that jacob has appointments for the covid vaccine it means he can go to camp vaccinated,0.0,1,Coral Gables,FL,Florida,Miami-Dade,25.7037,-80.2715,2021-05-15 00:00:00
US,2021-05-15 00:10:12,0.0,"Seattle, WA",Seattle,city,0.0,manners def been forgotten during covid shits annoying,0.0,0,Seattle,WA,Washington,King,47.6211,-122.3244,2021-05-15 00:00:00
